[{"Rooms":"10","HOTEL NAME":"Raheem Residency","ADDRESS":"\"20/1100Beach Road, Alleppey West - 688 012, KERALA\"","LATITUDE":"9.4980666999999900","LONGITUDE":"76.3388484000000000","STATE":"KERALA","PHONE":"0477-2230767","FAX":"0477-2239767","EMAIL ID":"contact@raheemresidency.com","WEBSITE":"www.raheemresidency.com","TYPE":"Heritage Classic"},{"Rooms":"57","HOTEL NAME":"Noor Us Sabah Palace","ADDRESS":"\"V.I.P.RoadKoh-E-Fiza, Bhopal - 462001, MADHYA PRADESH\"","LATITUDE":"23.2612107000000000","LONGITUDE":"77.3794326000000000","STATE":"MADHYA PRADESH","PHONE":"0755-4223333/4239996","FAX":"0755-4227777","EMAIL ID":"contact@noorussabahpalace.com/reservations@nusp.in","WEBSITE":"www.noorussabahpalace.com","TYPE":"Heritage Classic"},{"Rooms":"15","HOTEL NAME":"The Panjim Inn","ADDRESS":"\"31-ST JANUARY ROAD, FONTAINHAS, PANAJI, Panaji , GOA\"","LATITUDE":"15.4909301000000000","LONGITUDE":"73.8278495999999000","STATE":"GOA","PHONE":"4564277301","FAX":"4565273111","EMAIL ID":"visalam@cghearth.com","WEBSITE":"www.cghearth.com","TYPE":"Heritage Basic"},{"Rooms":"22","HOTEL NAME":"Balaram Palace Resort","ADDRESS":"\"Chitrassani Village,off Abu Palanpur Highway No.14 Banaskantha, BANASKANTHA, GUJARAT\"","LATITUDE":"24.1740510000000000","LONGITUDE":"72.4330988999999000","STATE":"GUJARAT","PHONE":"07926575286, 2657638","FAX":"7926578412","EMAIL ID":"balarampalaceresort@gmail.com","WEBSITE":"NA","TYPE":"Heritage Basic"},{"Rooms":"28","HOTEL NAME":"Nilambag Palace Hotel","ADDRESS":"\"Bhavnagar, Bhavnagar, GUJARAT\"","LATITUDE":"21.7644725000000000","LONGITUDE":"72.1519304000000000","STATE":"GUJARAT","PHONE":"02782424241, 2429323","FAX":"2782428072","EMAIL ID":"reservation@nilambagpalace.com","WEBSITE":"NA","TYPE":"Heritage Basic"},{"Rooms":"12","HOTEL NAME":"The Fort Ramgarh","ADDRESS":"\"Ramgarh, Panchkula On NH - 73 Delhi Shimla Highway, Near Chandigarh, Panchkula Distt., HARYANA\"","LATITUDE":"30.6942091000000000","LONGITUDE":"76.8605649999999000","STATE":"HARYANA","PHONE":"01733253072-75, 9814","FAX":"NA","EMAIL ID":"thefortramgarh@gmail.com","WEBSITE":"NA","TYPE":"Heritage Basic"},{"Rooms":"10","HOTEL NAME":"The Judges Court","ADDRESS":"\"Heritage VillageParagpur, Distt. - Kangra - 177107, HIMACHAL PRADESH\"","LATITUDE":"31.8085433000000000","LONGITUDE":"76.1957618000000000","STATE":"HIMACHAL PRADESH","PHONE":"01970-245035/245335","FAX":"01970-245823","EMAIL ID":"eries@vsnl.com/info@judgescourt.com","WEBSITE":"www.judgescourt.com","TYPE":"Heritage Basic"},{"Rooms":"31","HOTEL NAME":"The Palace","ADDRESS":"\"Chail, Solan,HIMACHAL PRADESH\"","LATITUDE":"30.9676214000000000","LONGITUDE":"77.1916497000000000","STATE":"HIMACHAL PRADESH","PHONE":"1772652704","FAX":"1772652206","EMAIL ID":"maltidutta50@yahoo.com","WEBSITE":"NA","TYPE":"Heritage Basic"},{"Rooms":"17","HOTEL NAME":"The Castle Naggar","ADDRESS":"\"Naggar, Distt. Kullu - 175130, HIMACHAL PRADESH\"","LATITUDE":"32.1139526000000000","LONGITUDE":"77.1643337000000000","STATE":"HIMACHAL PRADESH","PHONE":"1902248316","FAX":"1902223429","EMAIL ID":"castle@hptddc.in/kullu@hptdc.in","WEBSITE":"wwwhptdc.nic.in","TYPE":"Heritage Basic"},{"Rooms":"5","HOTEL NAME":"Hotel Cherthala House","ADDRESS":"\"Court JunctionEast of P.M.C. - 5, cherthala - 688 524, KERALA\"","LATITUDE":"9.6836368000000000","LONGITUDE":"76.3365376999999000","STATE":"KERALA","PHONE":"0475-2223688","FAX":"","EMAIL ID":"housecherthala@hotmail.com","WEBSITE":"NA","TYPE":"Heritage Basic"},{"Rooms":"7","HOTEL NAME":"Heritaga Methanam","ADDRESS":"\"K P XI / 298Near Perumpadappu, Kumbalanghi Bridge, Kumbalanghi P.O., Kochi - 682 007, KERALA\"","LATITUDE":"9.9093693000000000","LONGITUDE":"76.2800020999999000","STATE":"KERALA","PHONE":"4842248284","FAX":"4842248284","EMAIL ID":"heritagemethanam@gmail.com/info@heritagemethanam.com","WEBSITE":"www.heritagemethanam.com","TYPE":"Heritage Basic"},{"Rooms":"11","HOTEL NAME":"Old Lighthouse Bristow Hotel","ADDRESS":"\"Beach Road Next to SBI Training Center Fort Kochi , Cochin , KERALA\"","LATITUDE":"9.9618886000000000","LONGITUDE":"76.2376529000000000","STATE":"KERALA","PHONE":"4843050102","FAX":"NA","EMAIL ID":"reservations@oldlighthousehotel.com","WEBSITE":"NA","TYPE":"Heritage Basic"},{"Rooms":"8","HOTEL NAME":"Hotel Le Colonial","ADDRESS":"\"1/215, Church Road, Vasco-da-Gama Square, Fort Cochin , KERALA\"","LATITUDE":"9.9312328000000000","LONGITUDE":"76.2673040999999000","STATE":"KERALA","PHONE":"4842217181","FAX":"4842217184","EMAIL ID":"lecolonial@dataone.in","WEBSITE":"NA","TYPE":"Heritage Basic"},{"Rooms":"7","HOTEL NAME":"Kunnathur Mana Ayurveda Heritage","ADDRESS":"\"Door No.VIII/666 Punnayurkulam P.O. Thrissur Dist, Kerala, KERALA\"","LATITUDE":"10.6790657000000000","LONGITUDE":"76.0101767000000000","STATE":"KERALA","PHONE":"0487 2547552, 254755","FAX":"4872547554","EMAIL ID":"mail@kmaheritage.com","WEBSITE":"NA","TYPE":"Heritage Basic"},{"Rooms":"13","HOTEL NAME":"Old Harbour Hotel","ADDRESS":"\"No-1/328, Tower Road, Fort Kochi , Kochi , KERALA\"","LATITUDE":"9.9669995999999900","LONGITUDE":"76.2441295999999000","STATE":"KERALA","PHONE":"4842218006","FAX":"NA","EMAIL ID":"raintree@fortcochin.com","WEBSITE":"NA","TYPE":"Heritage Basic"},{"Rooms":"36","HOTEL NAME":"Coconut Lagoon","ADDRESS":"\"P.O. Box No. 2Kumarakom, Kottayam - 686563, KERALA\"","LATITUDE":"9.6090187000000000","LONGITUDE":"76.4331698000000000","STATE":"KERALA","PHONE":"0481-2524491-2524373","FAX":"0481-2524495","EMAIL ID":"coconutlagoon@cghearth.com","WEBSITE":"www.cghearth.com","TYPE":"Heritage Basic"},{"Rooms":"6","HOTEL NAME":"Beach Hotel","ADDRESS":"\"(Beach Heritage Inn (P) Ltd.)Beach Road, Kozhikode - 673032, KERALA\"","LATITUDE":"11.2526959000000000","LONGITUDE":"75.7712968000000000","STATE":"KERALA","PHONE":"0495-2762055-57","FAX":"0495-2365363","EMAIL ID":"info@beachheritage.com","WEBSITE":"www.beachheritage.com","TYPE":"Heritage Basic"},{"Rooms":"5","HOTEL NAME":"Palakkad Heritage Hotels","ADDRESS":"\"Koduvayur P.O.Palakkad, Dist., KERALA \"","LATITUDE":"10.6632346000000000","LONGITUDE":"76.6470470000000000","STATE":"KERALA","PHONE":"4923252143","FAX":"4923252144","EMAIL ID":"info@palakkadheritagehotel.com","WEBSITE":"www.palakkadheritagehotel.com","TYPE":"Heritage Basic"},{"Rooms":"42","HOTEL NAME":"Somatheeram Ayurvedic Beach Resort (P) Ltd.","ADDRESS":"\"P.O. ChowaraVia Balaramapuram, Thiruvananthapuram - 695501, KERALA\"","LATITUDE":"8.4295253000000000","LONGITUDE":"77.0478112000000000","STATE":"KERALA","PHONE":"0471-2268101","FAX":"0471-2267600","EMAIL ID":"mail@somatheeram.in","WEBSITE":"www.somatheeram.in","TYPE":"Heritage Basic"},{"Rooms":"6","HOTEL NAME":"The Hillway Heritage","ADDRESS":"\"Opp. Police Station, State Highway - 1Kilimanoor P.O., Thiruvananthapuram - 695601, KERALA\"","LATITUDE":"8.7356258999999900","LONGITUDE":"76.8740558000000000","STATE":"KERALA","PHONE":"4702673555","FAX":"NA","EMAIL ID":"mail@hillwayhotels.com","WEBSITE":"www.hillwayhotels.com","TYPE":"Heritage Basic"},{"Rooms":"15","HOTEL NAME":"Ahilya Fort","ADDRESS":"\"Ahilya Fort, Maheshwar, W Nimar , Bhopal , MADHYA PRADESH\"","LATITUDE":"22.1699246000000000","LONGITUDE":"75.5868260000000000","STATE":"MADHYA PRADESH","PHONE":"7283273329","FAX":"NA","EMAIL ID":"info@ahilyafort.com","WEBSITE":"www.ahilyafort.com","TYPE":"Heritage Basic"},{"Rooms":"6","HOTEL NAME":"Hotel Rock End Manor","ADDRESS":"\"Pachmarhi Distt. ,HOSHANGABAD , MADHYA PRADESH\"","LATITUDE":"22.4674463000000000","LONGITUDE":"78.4345854000000000","STATE":"MADHYA PRADESH","PHONE":"7552774340","FAX":"7552779476","EMAIL ID":"info@mptourism.com","WEBSITE":"www.mptourism.com","TYPE":"Heritage Basic"},{"Rooms":"6","HOTEL NAME":"Satpura Retreat","ADDRESS":"\"Pachmarhi, Dist. Hosangabad, MADHYA PRADESH\"","LATITUDE":"22.4674463000000000","LONGITUDE":"78.4345854000000000","STATE":"MADHYA PRADESH","PHONE":"07578-252097","FAX":"NA","EMAIL ID":"satpura@mptourism.com","WEBSITE":"www.mptourism.com","TYPE":"Heritage Basic"},{"Rooms":"8","HOTEL NAME":"Hotel Sheesh Mahal","ADDRESS":"\"MPSTDC, Orchha, Tikamgarh Dist. , MADHYA PRADESH\"","LATITUDE":"25.3682704000000000","LONGITUDE":"78.6285252000000000","STATE":"MADHYA PRADESH","PHONE":"7552774340","FAX":"7552779476","EMAIL ID":"info@mptourism.com","WEBSITE":"www.mptourism.com","TYPE":"Heritage Basic"},{"Rooms":"98","HOTEL NAME":"Jehan Numa Palace Hotel","ADDRESS":"\"157, SHAMLA HILL(M.P) , Bhopal , MADHYA PRADESH\"","LATITUDE":"23.2599333000000000","LONGITUDE":"77.4126150000000000","STATE":"MADHYA PRADESH","PHONE":"755661100","FAX":"755661720","EMAIL ID":"NA","WEBSITE":"www.hoteljehanumapalace.com","TYPE":"Heritage Basic"},{"Rooms":"21","HOTEL NAME":"LE DUPLEIX","ADDRESS":"\"(unit of auberge Heritage Hotels) 5, CASERNE STREET , Pondicherry, PONDICHERRY\"","LATITUDE":"11.9415915000000000","LONGITUDE":"79.8083132999999000","STATE":"PONDICHERRY","PHONE":"4132666001","FAX":"4132334258","EMAIL ID":"gmldp@sarovarhotels.com","WEBSITE":"NA","TYPE":"Heritage Basic"},{"Rooms":"11","HOTEL NAME":"Calve","ADDRESS":"\"A Heritage HotelOld No. 36, New No. 44, Vysial Street, Puducherry - 605 001, PUDUCHERRY\"","LATITUDE":"11.9378367000000000","LONGITUDE":"79.8305077999999000","STATE":"","PHONE":"0413-2224103-2223738","FAX":"413-2222613","EMAIL ID":"whclve@gmail.com/calve@vsnl.net","WEBSITE":"www.calve.in","TYPE":"Heritage Basic"},{"Rooms":"67","HOTEL NAME":"Welcome Heritage, Khimsar Fort","ADDRESS":"\"Khimsar, RAJASTHAN \"","LATITUDE":"26.9749316000000000","LONGITUDE":"73.4061502000000000","STATE":"RAJASTHAN","PHONE":"1585262345","FAX":"1585262228","EMAIL ID":"reservation@khimsar.com","WEBSITE":"NA","TYPE":"Heritage Basic"},{"Rooms":"29","HOTEL NAME":"The Bagh","ADDRESS":"\"Agra Achnara Road Pucca Bagh Bharatpur, Bharatpur, RAJASTHAN \"","LATITUDE":"27.2169810000000000","LONGITUDE":"77.4895150000000000","STATE":"RAJASTHAN","PHONE":"1733253072","FAX":"1733253072","EMAIL ID":"contact@thefortramgarh.com","WEBSITE":"NA","TYPE":"Heritage Basic"},{"Rooms":"45","HOTEL NAME":"Gajner Palace","ADDRESS":"\"P.O. GajnerTehsil : Kolayat, Bikaner - 334001, RAJASTHAN\"","LATITUDE":"27.9756606000000000","LONGITUDE":"73.0832996000000000","STATE":"RAJASTHAN","PHONE":"01534-275061-9","FAX":"01534-275060","EMAIL ID":"egmnr@gajner.hrhindia.com","WEBSITE":"www.hrhindia.com","TYPE":"Heritage Basic"},{"Rooms":"24","HOTEL NAME":"The Laxmi Niwas Palace","ADDRESS":"\"(A Unit of Golden Triangle Fort and Palace Pvt. Ltd.) Dr. Karni Singhji Road ,Bikaner ,RAJASTHAN\"","LATITUDE":"28.0347684000000000","LONGITUDE":"73.3274275000000000","STATE":"RAJASTHAN","PHONE":"8322226523","FAX":"8322435220","EMAIL ID":"panjimin@bsnl.in","WEBSITE":"NA","TYPE":"Heritage Basic"},{"Rooms":"58","HOTEL NAME":"Chomu Palace","ADDRESS":"\"Near Main ChomuBus Stand, Chomu - 303702, RAJASTHAN\"","LATITUDE":"27.1701140000000000","LONGITUDE":"75.7197039000000000","STATE":"RAJASTHAN","PHONE":"01423-300400","FAX":"01423-300400","EMAIL ID":"gm@chomupalacehotel.com/info@chomupalacehotel.com","WEBSITE":"www.chomupalacehotel.com","TYPE":"Heritage Basic"},{"Rooms":"50","HOTEL NAME":"Bissau Palace","ADDRESS":"\"Outside Chandpole Gate , Jaipur, RAJASTHAN\"","LATITUDE":"26.9299253000000000","LONGITUDE":"75.8079133000000000","STATE":"RAJASTHAN","PHONE":"1412304371","FAX":"1412304628","EMAIL ID":"bissau@sancharnet.in","WEBSITE":"www.bissaupalace.com","TYPE":"Heritage Basic"},{"Rooms":"45","HOTEL NAME":"Deogarh Resorts","ADDRESS":"\"Deogarh MahalP.O. Deogarh Madariya, Distt. Rajsamand - 313331, RAJASTHAN\"","LATITUDE":"25.5286009000000000","LONGITUDE":"73.9077860000000000","STATE":"RAJASTHAN","PHONE":"02904-252777","FAX":"02904-252555","EMAIL ID":"deogarh@datainfosys.net","WEBSITE":"www.deogarhmahal.com","TYPE":"Heritage Basic"},{"Rooms":"25","HOTEL NAME":"Shikarbadi Hotel","ADDRESS":"\"Goverdhan Vilas, Udaipur - 313001, RAJASTHAN\"","LATITUDE":"24.5390690000000000","LONGITUDE":"73.6882722999999000","STATE":"RAJASTHAN","PHONE":"0294-2583200/04","FAX":"0294-2584841","EMAIL ID":"shikarbadi@hrhhotels.com","WEBSITE":"www.hrhhotels.com","TYPE":"Heritage Basic"},{"Rooms":"10","HOTEL NAME":"Welcom Heritage - Koolwal Kothi","ADDRESS":"\"House No. 40,Near Government Hospital RoadNawal Garh District, Jhunjhunu, RAJASTHAN\"","LATITUDE":"28.0854611000000000","LONGITUDE":"75.5276698999999000","STATE":"RAJASTHAN","PHONE":"01594-225817","FAX":"01594-225818","EMAIL ID":"indralokhotels@hotmail.com/holidays@welcomheritagehotels.com","WEBSITE":"www.welcomheritagehotels.com","TYPE":"Heritage Basic"},{"Rooms":"70","HOTEL NAME":"Ajit Bhawan","ADDRESS":"\"Near Circuit House, Jodhpur - 342 006, RAJASTHAN\"","LATITUDE":"26.2796560000000000","LONGITUDE":"73.0374199000000000","STATE":"RAJASTHAN","PHONE":"0291-2513333, 251141","FAX":"0291-2510674","EMAIL ID":"reservations@ajitbhawan.com","WEBSITE":"www.ajitbhawan.com","TYPE":"Heritage Basic"},{"Rooms":"43","HOTEL NAME":"Hotel Samode Palace","ADDRESS":"\"Village Samode, Dist. Jaipur - 303806, RAJASTHAN\"","LATITUDE":"27.2052802000000000","LONGITUDE":"75.8058865999999000","STATE":"RAJASTHAN","PHONE":"01423-240014","FAX":"01423-240023","EMAIL ID":"reservations@samode.com","WEBSITE":"www.samode.com","TYPE":"Heritage Basic"},{"Rooms":"20","HOTEL NAME":"Raj Niwas Palace","ADDRESS":"\"National Highway-3, Dholpur - 328 001, RAJASTHAN\"","LATITUDE":"26.7025181000000000","LONGITUDE":"77.8933909999999000","STATE":"RAJASTHAN","PHONE":"05642-220216","FAX":"05642-224888","EMAIL ID":"info@dholpurpalace.com","WEBSITE":"www.dholpurpalace.com","TYPE":"Heritage Basic"},{"Rooms":"70","HOTEL NAME":"Hotel Castle Mandawa Pvt.Ltd.","ADDRESS":"\"MandawaJhunjhunu District, Shekhawati - 333704, RAJASTHAN\"","LATITUDE":"28.0539262000000000","LONGITUDE":"75.1489325999999000","STATE":"RAJASTHAN","PHONE":"0141-2371194/2374112","FAX":"0141-2372084","EMAIL ID":"reservation@castlemandawa.com/castle@datainfosys.net","WEBSITE":"www.castlemandawa.com","TYPE":"Heritage Basic"},{"Rooms":"34","HOTEL NAME":"Rohet Garh","ADDRESS":"\"Village P.O RohetDistt. Pali, Rajasthan, RAJASTHAN\"","LATITUDE":"25.7710893000000000","LONGITUDE":"73.3234478000000000","STATE":"RAJASTHAN","PHONE":"2936268231","FAX":"2912649368","EMAIL ID":"rohethouse@dataone.in","WEBSITE":"NA","TYPE":"Heritage Basic"},{"Rooms":"32","HOTEL NAME":"Lake Pichola Hotel","ADDRESS":"\"Piplia Haveli, Out Side ChandpoleUdaipur, Rajasthan, Udaipur, RAJASTHAN\"","LATITUDE":"24.5854450000000000","LONGITUDE":"73.7124790000000000","STATE":"RAJASTHAN","PHONE":"2942431197","FAX":"9242430575","EMAIL ID":"maltidutta50@yahoo.com","WEBSITE":"NA","TYPE":"Heritage Basic"},{"Rooms":"14","HOTEL NAME":"The Ramgarh Lodge","ADDRESS":"\"Ramgarh LakeJamwa Ramgarh, Jaipur - 303109, RAJASTHAN\"","LATITUDE":"26.9124336000000000","LONGITUDE":"75.7872709000000000","STATE":"RAJASTHAN","PHONE":"01426-214027/214097","FAX":"01426-252079","EMAIL ID":"ramgarh.jaipur@tajhotels.com","WEBSITE":"NA","TYPE":"Heritage Basic"},{"Rooms":"43","HOTEL NAME":"Hotel Indra Villas","ADDRESS":"\"A unit of Desert Heritage Resorts Pvt. Ltd. Ward No.2, Village Alsisar , JHUNJHUNU , RAJASTHAN\"","LATITUDE":"28.3067242000000000","LONGITUDE":"75.2872788999999000","STATE":"RAJASTHAN","PHONE":"1595275567","FAX":"1595275567","EMAIL ID":"info@indravilasalsisar.com","WEBSITE":"NA","TYPE":"Heritage Basic"},{"Rooms":"26","HOTEL NAME":"Singhasan Haveli","ADDRESS":"\"Goenka Chowk, Mandawa,Dist., JHUNJHUNU, RAJASTHAN\"","LATITUDE":"28.0500170000000000","LONGITUDE":"75.1487006999999000","STATE":"RAJASTHAN","PHONE":"1126124069","FAX":"1126124073","EMAIL ID":"info@singhasanhaveli.com","WEBSITE":"NA","TYPE":"Heritage Basic"},{"Rooms":"38","HOTEL NAME":"Fort Khejarla","ADDRESS":"\"(Aunit of Bhandari Heritage Pvt. Ltd.)Village Khejarla, Via Bilara, Distt. Jodhpur - 342601, RAJASTHAN\"","LATITUDE":"26.3279453000000000","LONGITUDE":"73.6811695000000000","STATE":"RAJASTHAN","PHONE":"02930-258485 - 25848","FAX":"02930-258485","EMAIL ID":"khejarlafort@gmail.com","WEBSITE":"www.jodhpurforkhejarla.com","TYPE":"Heritage Basic"},{"Rooms":"24","HOTEL NAME":"Sardargarh Heritage Hotel","ADDRESS":"\"Sardargarh Fort, Village-Lawa Sardargarh Sardargarh, Dist:-Rajsamand , Rajsamand , RAJASTHAN\"","LATITUDE":"25.2608660000000000","LONGITUDE":"73.9608600000000000","STATE":"RAJASTHAN","PHONE":"1592223137","FAX":"1592223137","EMAIL ID":"hotelmandawa@yahoo.co.in","WEBSITE":"NA","TYPE":"Heritage Basic"},{"Rooms":"36","HOTEL NAME":"The Sawai Madhopur Lodge","ADDRESS":"\"Ranthambore National Park Road, Sawai Madhopur - 302 005, RAJASTHAN\"","LATITUDE":"26.0173274000000000","LONGITUDE":"76.5025742000000000","STATE":"RAJASTHAN","PHONE":"07462-220541","FAX":"07462-220718","EMAIL ID":"vivanta.sawaimadhopur@tajhotels.com","WEBSITE":"NA","TYPE":"Heritage Basic"},{"Rooms":"12","HOTEL NAME":"Karni Bhawan Palace","ADDRESS":"\"Gandhi Colony Bikaner ,Bikaner ,RAJASTHAN\"","LATITUDE":"27.9961424000000000","LONGITUDE":"73.3417032000000000","STATE":"RAJASTHAN","PHONE":"1512524701","FAX":"1512522408","EMAIL ID":"karnihotels@satam.net.in","WEBSITE":"NA","TYPE":"Heritage Basic"},{"Rooms":"25","HOTEL NAME":"Norkhill Hotel","ADDRESS":"\"Stadium Road, Gangtok , SIKKIM\"","LATITUDE":"27.3321804000000000","LONGITUDE":"88.6140425000000000","STATE":"SIKKIM","PHONE":"3592205637","FAX":"3592205639","EMAIL ID":"norkhill@elginhotels.com","WEBSITE":"www.elginhotels.com","TYPE":"Heritage Basic"},{"Rooms":"15","HOTEL NAME":"Visalam","ADDRESS":"\"7/1/143 LOCAL FUND ROAD, KANADUKATHAN KARAIKUDI, TAMIL NADU, KARAIKUDI, TAMIL NADU\"","LATITUDE":"10.1618978000000000","LONGITUDE":"78.7872876000000000","STATE":"TAMIL NADU","PHONE":"04565277301, 2","FAX":"4565273111","EMAIL ID":"visalam@cghearth.com","WEBSITE":"NA","TYPE":"Heritage Basic"},{"Rooms":"30","HOTEL NAME":"Hotel Fairhavens Holiday Home","ADDRESS":"\"Adacent to Head Post Office Mallital, Nainital, UTTARAKHAND\"","LATITUDE":"29.3944810000000000","LONGITUDE":"79.4517369999999000","STATE":"UTTARAKHAND","PHONE":"5942236057","FAX":"5942236604","EMAIL ID":"fairhavens@rediffmail.com","WEBSITE":"NA","TYPE":"Heritage Basic"},{"Rooms":"32","HOTEL NAME":"The Naini Retreat","ADDRESS":"\"Ayarapatta Sloppes, Nainital - 263001, UTTARAKHAND\"","LATITUDE":"29.3803039000000000","LONGITUDE":"79.4635658000000000","STATE":"UTTARAKHAND","PHONE":"05942-235105","FAX":"05942-235103","EMAIL ID":"info@leisurehotels.co.in/bookings@leisurehotels.in","WEBSITE":"NA","TYPE":"Heritage Basic"},{"Rooms":"20","HOTEL NAME":"The Elgin Hotel","ADDRESS":"\"18, H.D. Lama Road, P.O. Darjeeling, WEST BENGAL\"","LATITUDE":"27.0470170000000000","LONGITUDE":"88.2675100000000000","STATE":"WEST BENGAL","PHONE":"3542257226","FAX":"3542254267","EMAIL ID":"reservation@elginhotels.com","WEBSITE":"NA","TYPE":"Heritage Basic"},{"Rooms":"60","HOTEL NAME":"Taj Falaknuma Palace","ADDRESS":"\"Engine Bowli, Falaknuma , Hyderabad, ANDHRA PRADESH\"","LATITUDE":"17.3389992000000000","LONGITUDE":"78.4702214999999000","STATE":"ANDHRA PRADESH","PHONE":"4066298585","FAX":"4066298586","EMAIL ID":"falaknuma.hyderabad@tajhotels.com","WEBSITE":"NA","TYPE":"5 Star Deluxe"},{"Rooms":"188","HOTEL NAME":"ITC HOTEL KAKATIYA","ADDRESS":"\"6-3-1187,BEGUMPETnull, Hyderabad, ANDHRA PRADESH\"","LATITUDE":"17.4347001000000000","LONGITUDE":"78.4600279999999000","STATE":"ANDHRA PRADESH","PHONE":"402340032","FAX":"4023401045","EMAIL ID":"itckakatiya@itchotel.in","WEBSITE":"NA","TYPE":"5 Star Deluxe"},{"Rooms":"216","HOTEL NAME":"Eros Hotel Managed by Hilton","ADDRESS":"\"S-1American Plaza, International Trade Tower, Nehru Place, New Delhi - 110 019, DELHI\"","LATITUDE":"28.5504215000000000","LONGITUDE":"77.2505235000000000","STATE":"DELHI","PHONE":"011-41223344","FAX":"011-26224288","EMAIL ID":"nehruplace.reservations@hilton.com","WEBSITE":"www3.hilton.com","TYPE":"5 Star Deluxe"},{"Rooms":"550","HOTEL NAME":"The Ashok","ADDRESS":"\"50-BChanakyapuri, New Delhi - 110021, DELHI\"","LATITUDE":"28.5882100000000000","LONGITUDE":"77.1833259999999000","STATE":"DELHI","PHONE":"011-26110101","FAX":"011-26873216","EMAIL ID":"ashoknd@ndb.vsnl.net.in","WEBSITE":"www.theashok.com","TYPE":"5 Star Deluxe"},{"Rooms":"233","HOTEL NAME":"Hotel Imperial","ADDRESS":"\"Janpath, New Delhi - 110001, DELHI\"","LATITUDE":"28.6175859000000000","LONGITUDE":"77.2187278999999000","STATE":"DELHI","PHONE":"011-23341234","FAX":"011-23342255","EMAIL ID":"luxury@theimperialindia.com","WEBSITE":"www.theimperialindia.com","TYPE":"5 Star Deluxe"},{"Rooms":"508","HOTEL NAME":"Hyatt Regency Delhi","ADDRESS":"\"Bhikaji Cama Place, New Delhi - 110066, DELHI\"","LATITUDE":"28.5679240000000000","LONGITUDE":"77.1880786000000000","STATE":"DELHI","PHONE":"011-26791234","FAX":"011-26791017","EMAIL ID":"delhi.regency@hyatt.com","WEBSITE":"NA","TYPE":"5 Star Deluxe"},{"Rooms":"440","HOTEL NAME":"ITC-The Maurya","ADDRESS":"\"ITC LimitedDiplomatic Enclave, New Delhi - 110021, DELHI\"","LATITUDE":"28.5883628000000000","LONGITUDE":"77.1859068999999000","STATE":"DELHI","PHONE":"011-26112233","FAX":"011-26113333","EMAIL ID":"reservations.itcmaurya@itchotels.in","WEBSITE":"NA","TYPE":"5 Star Deluxe"},{"Rooms":"358","HOTEL NAME":"Le Meridien Hotel","ADDRESS":"\"8, Windsor Place Janpath, New Delhinull, New Delhi, DELHI\"","LATITUDE":"28.6194722000000000","LONGITUDE":"77.2185463999999000","STATE":"DELHI","PHONE":"1123710101","FAX":"1123714545","EMAIL ID":"info@lemeridien-newdelhi.com","WEBSITE":"NA","TYPE":"5 Star Deluxe"},{"Rooms":"409","HOTEL NAME":"Taj Palace Hotel","ADDRESS":"\"Sardar Patel Marg , New Delhi ,DELHI\"","LATITUDE":"28.6012464000000000","LONGITUDE":"77.1791664999999000","STATE":"DELHI","PHONE":"1126110202","FAX":"1126110808","EMAIL ID":"palace.delhi@tajhotels.com","WEBSITE":"NA","TYPE":"5 Star Deluxe"},{"Rooms":"457","HOTEL NAME":"The Lalit","ADDRESS":"\"Barakhamba AvenueConnaught Place,New Delhi - 110001, DELHI\"","LATITUDE":"28.6306943000000000","LONGITUDE":"77.2232451999999000","STATE":"DELHI","PHONE":"011-44447777","FAX":"011-44441234","EMAIL ID":"newdelhi@thelalit.com","WEBSITE":"NA","TYPE":"5 Star Deluxe"},{"Rooms":"283","HOTEL NAME":"The Oberoi -  New Delhi","ADDRESS":"\"Dr. Zakir Hussain Marg, New Delhi - 110003,DELHI\"","LATITUDE":"28.6017015000000000","LONGITUDE":"77.2377341000000000","STATE":"DELHI","PHONE":"011-24363030","FAX":"011-24360484","EMAIL ID":"reservations@oberoigroup.com","WEBSITE":"NA","TYPE":"5 Star Deluxe"},{"Rooms":"68","HOTEL NAME":"Aman, New Delhi","ADDRESS":"\"Lodhi Road, New Delhi - 110003, DELHI\"","LATITUDE":"28.5911414000000000","LONGITUDE":"77.2280739000000000","STATE":"DELHI","PHONE":"1143633333","FAX":"1143633335","EMAIL ID":"amannewdelhi@amanresorts.com","WEBSITE":"NA","TYPE":"5 Star Deluxe"},{"Rooms":"260","HOTEL NAME":"The Hotel Leela Palace Kempinski","ADDRESS":"\"Diplomatic Enclave, New Delhi - 110023,DELHI, National Highway No. 8, New Delhi-110037, DELHI\"","LATITUDE":"28.5284731000000000","LONGITUDE":"77.1004217000000000","STATE":"DELHI","PHONE":"011-39331234, 1126779090","FAX":"011-39331235","EMAIL ID":"reservations.newdelhi@theleela.com","WEBSITE":"NA","TYPE":"5 Star Deluxe"},{"Rooms":"104","HOTEL NAME":"Riviera De Goa Resort","ADDRESS":"\"Shimer VaddoXimer, Arpora - 403 518, GOA\"","LATITUDE":"15.5713347000000000","LONGITUDE":"73.7683784000000000","STATE":"GOA","PHONE":"0832-6655666","FAX":"0832-2277503","EMAIL ID":"mail@rivieradegoaresorts.com","WEBSITE":"NA","TYPE":"5 Star Deluxe"},{"Rooms":"172","HOTEL NAME":"Vivanta by Taj - Panaji","ADDRESS":"\"Off. D.B. Bandodkar RoadSt. Inez, Panaji - 403001, GOA\"","LATITUDE":"15.4931256000000000","LONGITUDE":"73.8179782999999000","STATE":"GOA","PHONE":"0832-6633636","FAX":"0832-6633600","EMAIL ID":"vivanta.panaji@tajhotels.com","WEBSITE":"NA","TYPE":"5 Star Deluxe"},{"Rooms":"142","HOTEL NAME":"Vivanta by Taj - Holiday","ADDRESS":"\"(Earlier known as The Taj Holiday Village)Dando, Candolim, Bardez - 403 515, GOA\"","LATITUDE":"15.4996772000000000","LONGITUDE":"73.7691296000000000","STATE":"GOA","PHONE":"0832-6645858","FAX":"0832-6645502","EMAIL ID":"vivanta.holidayvillage@tajhotels.com","WEBSITE":"www.vivantabytaj.com","TYPE":"5 Star Deluxe"},{"Rooms":"106","HOTEL NAME":"Bell Tower Resorts Pvt.Ltd.","ADDRESS":"\"Bell Tower Resorts Pvt.Ltd. (Retreat by Zuri) Pedda, Uttor Doxi, Varca Salcatte-Goa-403721 , Salcete , GOA\"","LATITUDE":"15.2386180000000000","LONGITUDE":"73.9299800000000000","STATE":"GOA","PHONE":"8322772996","FAX":"8322772996","EMAIL ID":"NA","WEBSITE":"NA","TYPE":"5 Star Deluxe"},{"Rooms":"200","HOTEL NAME":"Hotel Ramada Caravela Beach Resort","ADDRESS":"\"Varca Beach, Salcete - 403721, GOA\"","LATITUDE":"15.2209348000000000","LONGITUDE":"73.9290015000000000","STATE":"GOA","PHONE":"0832-6695000","FAX":"0832-6695699","EMAIL ID":"caravela.gr@advanihotels.com/reservations.gr@advanihotels.com","WEBSITE":"www.caravelabeachresort.com","TYPE":"5 Star Deluxe"},{"Rooms":"145","HOTEL NAME":"Vivanta By Taj- Fort Aguada","ADDRESS":"\"Sinquerim, Bardez - 403519, GOA \"","LATITUDE":"15.5347166000000000","LONGITUDE":"73.7645864999999000","STATE":"GOA","PHONE":"0832-6645858","FAX":"0832-6645868","EMAIL ID":"vivanta.fortaguada@tajhotels.com","WEBSITE":"www.vivantabytaj.com","TYPE":"5 Star Deluxe"},{"Rooms":"225","HOTEL NAME":"Th Lalit Golf & Spa Resort Goa","ADDRESS":"\"(Bharat Hotels Ltd.)Raj Baga,Canacona, GOA\"","LATITUDE":"14.9801920000000000","LONGITUDE":"74.0162014999999000","STATE":"GOA","PHONE":"8322667777","FAX":"8322667711","EMAIL ID":"goaresv@thelalit.com","WEBSITE":"NA","TYPE":"5 Star Deluxe"},{"Rooms":"82","HOTEL NAME":"Resort Rio","ADDRESS":"\"Resort Rio, Tambudki,Arpora, Bardez, GOA\"","LATITUDE":"15.5649270000000000","LONGITUDE":"73.7591510000000000","STATE":"GOA","PHONE":"8322267300","FAX":"8322267301","EMAIL ID":"gm@resortrio.com","WEBSITE":"NA","TYPE":"5 Star Deluxe"},{"Rooms":"205","HOTEL NAME":"Hotel Cidade de Goa","ADDRESS":"\"(Unit of Fomento Resorts & Hotels Ltd.), Vainguinim Beach - 403004, GOA\"","LATITUDE":"15.4569460000000000","LONGITUDE":"73.8133639999999000","STATE":"GOA","PHONE":"8322454545","FAX":"08322454541/42","EMAIL ID":"cidadedegoa@cidadedegoa.com","WEBSITE":"www.cidadedegoa.com","TYPE":"5 Star Deluxe"},{"Rooms":"120","HOTEL NAME":"Majorda Beach Resort","ADDRESS":"\"MajordaSalcette, Goa - 403713, GOA\"","LATITUDE":"15.3249415000000000","LONGITUDE":"73.9301037000000000","STATE":"GOA","PHONE":"0832-288111/6681111","FAX":"0832-2881121/2881124","EMAIL ID":"acc@majordabeachresortgoa.com","WEBSITE":"www.majordabeachresort.com","TYPE":"5 Star Deluxe"},{"Rooms":"186","HOTEL NAME":"The Leela Kempinski, Goa","ADDRESS":"\"MoborCavelossim, Salcette - 403731, GOA\"","LATITUDE":"15.1813130000000000","LONGITUDE":"73.9447993999999000","STATE":"GOA","PHONE":"8326621234","FAX":"8322871352","EMAIL ID":"reservations.goa@theleela.com","WEBSITE":"www.theleela.com","TYPE":"5 Star Deluxe"},{"Rooms":"136","HOTEL NAME":"Hotel Trident - Gurgaon","ADDRESS":"\"Plot No. 443, Udyog ViharPhase - V, Gurgaon - 122016, HARYANA\"","LATITUDE":"28.4993192000000000","LONGITUDE":"77.0847722000000000","STATE":"HARYANA","PHONE":"0124-2450505","FAX":"0124-2450606","EMAIL ID":"reservations@tridenthotels.com","WEBSITE":"NA","TYPE":"5 Star Deluxe"},{"Rooms":"412","HOTEL NAME":"The Leela Kempinski -  Gurgaon","ADDRESS":"\"(Ambience Hotels & Resorts Ltd.) Village Nathupur, N.H.-8 Gurgaon, Gurgaon, HARYANA\"","LATITUDE":"28.5043230000000000","LONGITUDE":"77.0973040000000000","STATE":"HARYANA","PHONE":"1244771234","FAX":"1244771235","EMAIL ID":"reservations.gurgaon-delhi@theleela.com","WEBSITE":"NA","TYPE":"5 Star Deluxe"},{"Rooms":"84","HOTEL NAME":"The Bristol Hotel","ADDRESS":"\"Adjacent to DLFQutab Enclave Phase - 1, Gurgaon - 122002, HARYANA\"","LATITUDE":"28.4663772000000000","LONGITUDE":"77.0997326999999000","STATE":"HARYANA","PHONE":"0124-2356030","FAX":"0124-2357834","EMAIL ID":"contact@thebristolhotel.com","WEBSITE":"www.thebristolhotel.com","TYPE":"5 Star Deluxe"},{"Rooms":"85","HOTEL NAME":"Wildflower Hall","ADDRESS":"\"(Mashobara Resort Limited, A Unit of EIH Limited)Chharabra, Shimla - 171 012, HIMACHAL PRADESH\"","LATITUDE":"31.0971469000000000","LONGITUDE":"77.2878339999999000","STATE":"HIMACHAL PRADESH","PHONE":"0177-2648585","FAX":"0177-2648686","EMAIL ID":"reservations@oberoigroup.com","WEBSITE":"www.oberoihotels.com","TYPE":"5 Star Deluxe"},{"Rooms":"199","HOTEL NAME":"Vivanta by Taj -  Whitefield","ADDRESS":"\"ITBP Whitefield, Bangalore - 560066, KARNATAKA\"","LATITUDE":"12.9698066000000000","LONGITUDE":"77.7499632000000000","STATE":"KARNATAKA","PHONE":"080-66933333","FAX":"080-66933344","EMAIL ID":"vivanta.whitefield@tajhotels.com","WEBSITE":"NA","TYPE":"5 Star Deluxe"},{"Rooms":"170","HOTEL NAME":"Hotel Golden Palms Hotel & Spa","ADDRESS":"\"NO-31 & 32 GOLDEN PALMS AVENUE OFF TUMKUR ROAD BANGALORE,  KARNATAKA\"","LATITUDE":"13.0891353000000000","LONGITUDE":"77.4450724999999000","STATE":"KARNATAKA","PHONE":"8023712222","FAX":"8023710022","EMAIL ID":"info@goldenpalmshotel.com","WEBSITE":"NA","TYPE":"5 Star Deluxe"},{"Rooms":"240","HOTEL NAME":"ITC Hotel Windsor & Towers","ADDRESS":"\"WINDSOR SQUARE, 25 GOLF COURES ROAD, Bangalore , KARNATAKA\"","LATITUDE":"12.9941313000000000","LONGITUDE":"77.5860627000000000","STATE":"KARNATAKA","PHONE":"802269898","FAX":"802264941","EMAIL ID":"www.welcomgroup.com","WEBSITE":"NA","TYPE":"5 Star Deluxe"},{"Rooms":"117","HOTEL NAME":"The Taj West End","ADDRESS":"\"Race Course Road Bangalore, KARNATAKA\"","LATITUDE":"12.9838758000000000","LONGITUDE":"77.5815784000000000","STATE":"KARNATAKA","PHONE":"8066605660","FAX":"8066605700","EMAIL ID":"westend.bengalore@tajhotels.com","WEBSITE":"NA","TYPE":"5 Star Deluxe"},{"Rooms":"230","HOTEL NAME":"Sheraton Banglore at Brigade Gateway","ADDRESS":"\"26/1, Rajajinagar ExtensionDr. Rajkumar Road, Malleswaram West, Bangalore, KARNATAKA\"","LATITUDE":"12.9939098000000000","LONGITUDE":"77.5558590999999000","STATE":"KARNATAKA","PHONE":"9.1841E+11","FAX":"9.1822E+11","EMAIL ID":"diwaker.tyagi@shraton.com","WEBSITE":"www.brigadegroup.com","TYPE":"5 Star Deluxe"},{"Rooms":"160","HOTEL NAME":"The Oberoi Bangalore","ADDRESS":"\"39 Mahatma Gandhi RoadBanglore-560001, Bangalore, KARNATAKA\"","LATITUDE":"12.9747056000000000","LONGITUDE":"77.6093965000000000","STATE":"KARNATAKA","PHONE":"9.1826E+11","FAX":"9.1826E+11","EMAIL ID":"reservations@oberoiblr.com","WEBSITE":"NA","TYPE":"5 Star Deluxe"},{"Rooms":"167","HOTEL NAME":"Vivanta by Taj -  Bangalore","ADDRESS":"\"41/3M.G. Road, Bangalore - 560001, KARNATAKA\"","LATITUDE":"12.9721082000000000","LONGITUDE":"77.5957263000000000","STATE":"KARNATAKA","PHONE":"0806660 4444","FAX":"0806661 4444","EMAIL ID":"vivanta.mgroad@tajhotels.com","WEBSITE":"www.vivantabytaj.com","TYPE":"5 Star Deluxe"},{"Rooms":"218","HOTEL NAME":"Park Plaza","ADDRESS":"\"NO. 5 Defence Colony,1st main, Indirangar, KARNATAKA\"","LATITUDE":"12.9771959000000000","LONGITUDE":"77.6423344000000000","STATE":"KARNATAKA","PHONE":"42197330","FAX":"8042452346","EMAIL ID":"sonusarmag@gmail.com","WEBSITE":"NA","TYPE":"5 Star Deluxe"},{"Rooms":"150","HOTEL NAME":"Dream Hotel Cochin","ADDRESS":"\"37/985, C&D, Sahodaran Ayyappan Road Elamkulam Jnction, Kadavanthara cochin-682020, Cochin, KERALA\"","LATITUDE":"9.9675984000000000","LONGITUDE":"76.3004008000000000","STATE":"KERALA","PHONE":"4844129999","FAX":"4844129898","EMAIL ID":"reservations@dreamcochin.com","WEBSITE":"NA","TYPE":"5 Star Deluxe"},{"Rooms":"73","HOTEL NAME":"Vivanta by Taj - Bekal","ADDRESS":"\"A Unit of Khanna Hotels PVt. LTd. BRDC Site No. 5, Kappil Beach P.O. Udma West Kasaragod - 671319, Kasaragod , KERALA\"","LATITUDE":"12.4223565000000000","LONGITUDE":"75.0223446999999000","STATE":"KERALA","PHONE":"4672265656","FAX":"4672265655","EMAIL ID":"tkhanna99@gmail.com","WEBSITE":"NA","TYPE":"5 Star Deluxe"},{"Rooms":"39","HOTEL NAME":"The Lalit Resorts & Spa Bekal","ADDRESS":"\"Bevoori, Udma, Taluka: Hosedurgh Distt: Kasargod Kerala, Kasaragod , KERALA\"","LATITUDE":"12.5020291000000000","LONGITUDE":"74.9923967999999000","STATE":"KERALA","PHONE":"4672237777","FAX":"4672237575","EMAIL ID":"resvbekal@thelalit.com","WEBSITE":"NA","TYPE":"5 Star Deluxe"},{"Rooms":"59","HOTEL NAME":"Vivanta By Taj - Kovalam","ADDRESS":"\"(Formerly known as Taj Green Cove Kovalam)G V Raja Vattappara Road, Kovalam, Thiruvananthapuram - 695 527, KERALA\"","LATITUDE":"8.4039450000000000","LONGITUDE":"76.9739110000000000","STATE":"KERALA","PHONE":"0471-6613000","FAX":"0471-2487744","EMAIL ID":"Vivanta.kovalam@tajhotels.com","WEBSITE":"www.vivantabytaj.com","TYPE":"5 Star Deluxe"},{"Rooms":"96","HOTEL NAME":"Vivanta by - Taj Malabar","ADDRESS":"\"Willingdon Island , Cochin , KERALA\"","LATITUDE":"9.9689625999999900","LONGITUDE":"76.2582852000000000","STATE":"KERALA","PHONE":"4846643000","FAX":"4846643182","EMAIL ID":"malabar.cochin@tajhotels.com","WEBSITE":"NA","TYPE":"5 Star Deluxe"},{"Rooms":"93","HOTEL NAME":"The Raviz Kollam","ADDRESS":"\"Kollam Royal Park Hotel And Resorts P LtdMathilil, Kollam, KERALA\"","LATITUDE":"8.9072156000000000","LONGITUDE":"76.5780245999999000","STATE":"KERALA","PHONE":"4742751111","FAX":"4742741111","EMAIL ID":"info@theraviz.com","WEBSITE":"www.theraviz.com","TYPE":"5 Star Deluxe"},{"Rooms":"127","HOTEL NAME":"Kovalam Resort Private Limited","ADDRESS":"\"The Leela Kovalam,Kerala, Thiruvananthapuram, KERALA\"","LATITUDE":"8.3937128999999900","LONGITUDE":"76.9719223000000000","STATE":"KERALA","PHONE":"4713051234","FAX":"4712481043","EMAIL ID":"reservations.kovalam@theleela.com","WEBSITE":"NA","TYPE":"5 Star Deluxe"},{"Rooms":"47","HOTEL NAME":"The Grand Temple View","ADDRESS":"\"Opp. Circuit House , Khajuraho , MADHYA PRADESH\"","LATITUDE":"24.8575176000000000","LONGITUDE":"79.9210954000000000","STATE":"MADHYA PRADESH","PHONE":"786272333","FAX":"786272123","EMAIL ID":"khajraho@thegrandhotels.net","WEBSITE":"NA","TYPE":"5 Star Deluxe"},{"Rooms":"90","HOTEL NAME":"Hotel Chandela","ADDRESS":"\"Airport RoadDist. Chhatarpur, Khajuraho - 471606, MADHYA PRADESH\"","LATITUDE":"24.8417315000000000","LONGITUDE":"79.9229998999999000","STATE":"MADHYA PRADESH","PHONE":"07686-272355, 272364","FAX":"07686-272365, 272366","EMAIL ID":"chandela.khajuraho@tajhotels.com","WEBSITE":"NA","TYPE":"5 Star Deluxe"},{"Rooms":"118","HOTEL NAME":"Chalet Hotel","ADDRESS":"\"Plot no.39/1 6 to 15 Sector 30 AVashi Navi Mumbai, Mumbai, MAHARASHTRA\"","LATITUDE":"19.0659358000000000","LONGITUDE":"73.0000838999999000","STATE":"MAHARASHTRA","PHONE":"2227817777","FAX":"2227817979","EMAIL ID":"reservations@fourpointsvashi.com","WEBSITE":"NA","TYPE":"5 Star Deluxe"},{"Rooms":"202","HOTEL NAME":"Four Seasons Hotel","ADDRESS":"\"(Unit of Mogus Estates & Hotels Ltd.) Plot NO.114,Dr.E.Moses Road Worli, Mumbai, MAHARASHTRA\"","LATITUDE":"18.9937351000000000","LONGITUDE":"72.8202718999999000","STATE":"MAHARASHTRA","PHONE":"2266627770","FAX":"2266627437","EMAIL ID":"reservations.mumbai@fourseasons.com","WEBSITE":"NA","TYPE":"5 Star Deluxe"},{"Rooms":"210","HOTEL NAME":"HOTEL SAHARA STAR","ADDRESS":"\"DOMESTIC AIRPORT, VILE PARLE (E), MUMBAI , MAHARASHTRA\"","LATITUDE":"19.0957449000000000","LONGITUDE":"72.8539413000000000","STATE":"MAHARASHTRA","PHONE":"2239895000","FAX":"2239895001","EMAIL ID":"www.saharastar.com","WEBSITE":"NA","TYPE":"5 Star Deluxe"},{"Rooms":"401","HOTEL NAME":"Hyatt Regency Mumbai","ADDRESS":"\"Sahar Airport RoadAndheri (East), Mumbai - 400 099, MAHARASHTRA\"","LATITUDE":"19.1036580000000000","LONGITUDE":"72.8709329999999000","STATE":"MAHARASHTRA","PHONE":"022-66961234","FAX":"022-66961235","EMAIL ID":"mumbai.regency@hyatt.com","WEBSITE":"www.mumbai.regency.hyatt.com","TYPE":"5 Star Deluxe"},{"Rooms":"171","HOTEL NAME":"Le Royal Meridien","ADDRESS":"\"SAHAR AIRPORT ROAD ANDHERI (E) , Mumbai , MAHARASHTRA\"","LATITUDE":"19.1044097000000000","LONGITUDE":"72.8707316000000000","STATE":"MAHARASHTRA","PHONE":"2228380000","FAX":"2228204399","EMAIL ID":"lmmumbai@vsnl.com","WEBSITE":"NA","TYPE":"5 Star Deluxe"},{"Rooms":"120","HOTEL NAME":"Sun-n-Sand Hotels Pvt. Ltd.","ADDRESS":"\"39Juhu Beach, Mumbai - 400 049, MAHARASHTRA\"","LATITUDE":"19.1095418000000000","LONGITUDE":"72.8241529000000000","STATE":"MAHARASHTRA","PHONE":"022-26201811-6693888","FAX":"022-26202170","EMAIL ID":"reservations@sunnsandhotel.com","WEBSITE":"www.sunnsandhotel.com","TYPE":"5 Star Deluxe"},{"Rooms":"565","HOTEL NAME":"The Taj Mahal Palace & Tower","ADDRESS":"\"Apollo Bunder , Mumbai , MAHARASHTRA\"","LATITUDE":"18.9217291000000000","LONGITUDE":"72.8330309000000000","STATE":"MAHARASHTRA","PHONE":"2266653366","FAX":"2266650300","EMAIL ID":"tmhbc.bom@tajhotels.com","WEBSITE":"www.tajhotels.com","TYPE":"5 Star Deluxe"},{"Rooms":"117","HOTEL NAME":"Hotel Le Meridien","ADDRESS":"\"R.B.M. Road, Pune - 411001, MAHARASHTRA\"","LATITUDE":"18.5300014000000000","LONGITUDE":"73.8713841000000000","STATE":"MAHARASHTRA","PHONE":"2026050505","FAX":"2026050506","EMAIL ID":"lmpune@lemeridien-pune.com","WEBSITE":"www.lemeridien-pune.com","TYPE":"5 Star Deluxe"},{"Rooms":"242","HOTEL NAME":"Hotel ITC Grand Central","ADDRESS":"\"287, Babasaheb Ambedkar RoadParel,Mumbai-400012, MAHARASHTRA\"","LATITUDE":"18.9981731000000000","LONGITUDE":"72.8388143000000000","STATE":"MAHARASHTRA","PHONE":"2224101010","FAX":"2224101111","EMAIL ID":"itcgrandcentral@itchotels.in","WEBSITE":"NA","TYPE":"5 Star Deluxe"},{"Rooms":"393","HOTEL NAME":"The Leela Kempinski","ADDRESS":"\"Sahar, Mumbai - 400 059, MAHARASHTRA\"","LATITUDE":"19.1089999000000000","LONGITUDE":"72.8736936999999000","STATE":"MAHARASHTRA","PHONE":"022-66911234","FAX":"022-66911212","EMAIL ID":"reservations.mumbai@theleela.com","WEBSITE":"www.theleela.com","TYPE":"5 Star Deluxe"},{"Rooms":"287","HOTEL NAME":"The Oberoi, Mumbai","ADDRESS":"\"Nariman Point, Mumbai - 400021, MAHARASHTRA\"","LATITUDE":"18.9269750000000000","LONGITUDE":"72.8204516000000000","STATE":"MAHARASHTRA","PHONE":"022-66325757-6632434","FAX":"022-66324142","EMAIL ID":"reservations@oberoigroup.com","WEBSITE":"www.oberoihotels.com","TYPE":"5 Star Deluxe"},{"Rooms":"269","HOTEL NAME":"The Westin Mumbai Garden City","ADDRESS":"\"Oberoi Garden City, International Business Park, Off Western Express Highway, Goregaon (East) , Mumbai , MAHARASHTRA\"","LATITUDE":"19.1727759000000000","LONGITUDE":"72.8607136999999000","STATE":"MAHARASHTRA","PHONE":"2261470000","FAX":"2261470101","EMAIL ID":"mumbaigardencity@westin.com","WEBSITE":"NA","TYPE":"5 Star Deluxe"},{"Rooms":"105","HOTEL NAME":"Fariyas Resort, Lonavla","ADDRESS":"\"Frichley HillsTungarli, Lonavla - 410401, MAHARASHTRA\"","LATITUDE":"18.7624166000000000","LONGITUDE":"73.3922578000000000","STATE":"MAHARASHTRA","PHONE":"02114-273852-55","FAX":"02114-272080","EMAIL ID":"fhrl@fariyas.com","WEBSITE":"www.fariyas.com","TYPE":"5 Star Deluxe"},{"Rooms":"550","HOTEL NAME":"Trident, Nariman Point","ADDRESS":"\"Nariman Point, Mumbai - 400 021, MAHARASHTRA\"","LATITUDE":"18.9274907000000000","LONGITUDE":"72.8211161000000000","STATE":"MAHARASHTRA","PHONE":"022-66324343","FAX":"022-66325000","EMAIL ID":"reservations@tridenthotels.com","WEBSITE":"www.tridenthotels.com","TYPE":"5 Star Deluxe"},{"Rooms":"493","HOTEL NAME":"Taj Lands End","ADDRESS":"\"B.J. RoadBand Stand, Bandra (West), Mumbai - 400050, MAHARASHTRA\"","LATITUDE":"19.0437820000000000","LONGITUDE":"72.8193809999999000","STATE":"MAHARASHTRA","PHONE":"022-66681234","FAX":"022-66680957 - 66994","EMAIL ID":"landsend.mumbai@tajhotels.com","WEBSITE":"www.tajhotels.com","TYPE":"5 Star Deluxe"},{"Rooms":"62","HOTEL NAME":"Trident -  Bhubaneswar","ADDRESS":"\"CB - 1 Nayapalli, Bhubaneshwar , ORISSA\"","LATITUDE":"20.3023545000000000","LONGITUDE":"85.8212676000000000","STATE":"ORISSA","PHONE":"6742301010","FAX":"6742301302","EMAIL ID":"reservations@tridenthotels.com","WEBSITE":"NA","TYPE":"5 Star Deluxe"},{"Rooms":"102","HOTEL NAME":"Hotel Mayfair Lagoon","ADDRESS":"\"8-BJaydev Vihar, Bhubaneswar, ORISSA\"","LATITUDE":"20.3019440000000000","LONGITUDE":"85.8192703000000000","STATE":"ORISSA","PHONE":"91 674 6660101","FAX":"91 674 2360236","EMAIL ID":"lagoon@mayfairhotels.com","WEBSITE":"www.mayfairhotels.com","TYPE":"5 Star Deluxe"},{"Rooms":"248","HOTEL NAME":"ISTA Amritsar","ADDRESS":"\"G.T. Road(Adjoining Alpha One City Centre), Amritsar - 143 001, PUNJAB\"","LATITUDE":"31.6188353000000000","LONGITUDE":"74.9088673000000000","STATE":"PUNJAB","PHONE":"0183-2708888","FAX":"0183-2700186, 270999","EMAIL ID":"sales@istaamritsar.com/reservations.amritsar@istahotels.com","WEBSITE":"www.istahotels.com","TYPE":"5 Star Deluxe"},{"Rooms":"218","HOTEL NAME":"Sheraton Rajputana Hotel","ADDRESS":"\"Palace Road, Jaipur-302006, RAJASTHAN\"","LATITUDE":"26.9197280000000000","LONGITUDE":"75.7914986000000000","STATE":"RAJASTHAN","PHONE":"1415100100","FAX":"1415102102","EMAIL ID":"reservations.itcrajputana@itchotels.in","WEBSITE":"sheratonrajputana@itcwelcomgroup.in","TYPE":"5 Star Deluxe"},{"Rooms":"71","HOTEL NAME":"The Oberoi Rajvilas","ADDRESS":"\"Goner Road, Jaipur - 303012, RAJASTHAN\"","LATITUDE":"26.8759401000000000","LONGITUDE":"75.8837592999999000","STATE":"RAJASTHAN","PHONE":"1412680101","FAX":"1412680202","EMAIL ID":"reservations@oberoigroup.com","WEBSITE":"www.oberoihotels.com","TYPE":"5 Star Deluxe"},{"Rooms":"87","HOTEL NAME":"The Oberoi Udaivilas","ADDRESS":"\"Haridas Ji Ki Magri , Udaipur , RAJASTHAN\"","LATITUDE":"24.5773827000000000","LONGITUDE":"73.6724412000000000","STATE":"RAJASTHAN","PHONE":"2942433300","FAX":"2942433200","EMAIL ID":"reservations@oberoigroup.com","WEBSITE":"NA","TYPE":"5 Star Deluxe"},{"Rooms":"100","HOTEL NAME":"Country Inn & Suites By Carlson","ADDRESS":"\"Country Inn & Suites By Carlson (A unit of Shivani Enclaves Pvt.,Khasa Kothi Circle M.I.Road, Jaipur, RAJASTHAN\"","LATITUDE":"26.9184613000000000","LONGITUDE":"75.7933767999999000","STATE":"RAJASTHAN","PHONE":"2222686","FAX":"2222193","EMAIL ID":"mail@goyalfashions.net","WEBSITE":"NA","TYPE":"5 Star Deluxe"},{"Rooms":"80","HOTEL NAME":"The Leela Palace Kempinski","ADDRESS":"\"P.O. Box No. 125Lake Pichola, Udaipur - 313 001, RAJASTHAN\"","LATITUDE":"24.5779520000000000","LONGITUDE":"73.6771519999999000","STATE":"RAJASTHAN","PHONE":"0294-6701234","FAX":"0294-6701212","EMAIL ID":"businesscentre@theleela.com","WEBSITE":"www.theleela.com","TYPE":"5 Star Deluxe"},{"Rooms":"100","HOTEL NAME":"JAI MAHAL PALACE HOTEL","ADDRESS":"\"JACOB ROAD,CIVIL LINES, Jaipur, RAJASTHAN\"","LATITUDE":"26.9121335000000000","LONGITUDE":"75.7851706000000000","STATE":"RAJASTHAN","PHONE":"1416601111","FAX":"1416601057","EMAIL ID":"jaimahal.jaipur@tajhotels.com","WEBSITE":"tajhotels.com","TYPE":"5 Star Deluxe"},{"Rooms":"63","HOTEL NAME":"Mayfair Spa & Resort","ADDRESS":"\"(Unit of Mayfair Hotels & Resorts (Sikkim) Pvt. Ltd.)Lower Samdur Block, Ranipool - 737135, Gangtok, SIKKIM\"","LATITUDE":"27.2961274000000000","LONGITUDE":"88.5887395000000000","STATE":"SIKKIM","PHONE":"0359-2250555/666","FAX":"0359-2251009","EMAIL ID":"gangtok@mayfairhotels.com","WEBSITE":"NA","TYPE":"5 Star Deluxe"},{"Rooms":"220","HOTEL NAME":"Taj Mount Road","ADDRESS":"\"No. 2Club House Road, Chennai - 600 002, TAMIL NADU\"","LATITUDE":"13.0614079000000000","LONGITUDE":"80.2635830999999000","STATE":"TAMIL NADU","PHONE":"044-66313131","FAX":"044-66313030","EMAIL ID":"clubhouse.chennai@tajhotels.com/mountroad.chennai@tajhotels.com","WEBSITE":"NA","TYPE":"5 Star Deluxe"},{"Rooms":"214","HOTEL NAME":"THE PARK","ADDRESS":"\"UNIT :APEEJAY -SURRENDRA PARK HOTELS LTD 601, ANNA SALAI , Chennai, TAMIL NADU \"","LATITUDE":"13.0529601000000000","LONGITUDE":"80.2500100000000000","STATE":"TAMIL NADU","PHONE":"4452144000","FAX":"4452144100","EMAIL ID":"tpch@theparkhotels.com","WEBSITE":"NA","TYPE":"5 Star Deluxe"},{"Rooms":"88","HOTEL NAME":"Vivanta by Taj - Fishermans Cove","ADDRESS":"\"Covelong Beach, Kanchipuram Dist. - 603112, TAMIL NADU\"","LATITUDE":"12.7975680000000000","LONGITUDE":"80.2481689999999000","STATE":"TAMIL NADU","PHONE":"044-67413333","FAX":"044-67413330","EMAIL ID":"vivanta.fishcove@tajhotels.com","WEBSITE":"www.vivantabytaj.com","TYPE":"5 Star Deluxe"},{"Rooms":"205","HOTEL NAME":"Taj Coromandel","ADDRESS":"\"37Mahatma Gandhi Salai, Nungambakkam, Chennai - 600 034, TAMIL NADU\"","LATITUDE":"13.0581417000000000","LONGITUDE":"80.2473337999999000","STATE":"TAMIL NADU","PHONE":"044-66002827","FAX":"044-66002089","EMAIL ID":"coromandel.chennai@tajhotels.com","WEBSITE":"www.tajhotels.com","TYPE":"5 Star Deluxe"},{"Rooms":"240","HOTEL NAME":"Le Royal Meridien Chennai","ADDRESS":"\"(Owned by Appu Hotels Limited)No. 1, G.S.T. Road, St. Thomas Mount, Chennai - 600 016, TAMIL NADU\"","LATITUDE":"13.0066522000000000","LONGITUDE":"80.2055563000000000","STATE":"TAMIL NADU","PHONE":"044-22314343, 435345","FAX":"044-22314344","EMAIL ID":"reservation@leroyalmeridien-chennai.com","WEBSITE":"NA","TYPE":"5 Star Deluxe"},{"Rooms":"233","HOTEL NAME":"ITC The Mughal","ADDRESS":"\"Fatehabad RoadTajganj, Agra - 282 001, UTTAR PRADESH\"","LATITUDE":"27.1595787000000000","LONGITUDE":"78.0430688999999000","STATE":"UTTAR PRADESH","PHONE":"0562-4021700","FAX":"0562-2331730","EMAIL ID":"reservations.itcmughal@itchotels.in","WEBSITE":"www.itchotels.in","TYPE":"5 Star Deluxe"},{"Rooms":"170","HOTEL NAME":"Jaypee Greens Golf & Spa Resort","ADDRESS":"\"A division of Jaiprakash Associates Ltd. G-Block, Surajpur Kasna Road Gautam Budh Nagar, Greater Noida, UTTAR PRADESH\"","LATITUDE":"28.4652394000000000","LONGITUDE":"77.5168491000000000","STATE":"UTTAR PRADESH","PHONE":"1206743000","FAX":"1202324720","EMAIL ID":"reservation.jggr@jaypeehotels.com","WEBSITE":"NA","TYPE":"5 Star Deluxe"},{"Rooms":"110","HOTEL NAME":"Vivanta by Taj","ADDRESS":"\"Vipin Khand Gomti Nagar , Lucknow , UTTAR PRADESH\"","LATITUDE":"26.8516130000000000","LONGITUDE":"80.9734977000000000","STATE":"UTTAR PRADESH","PHONE":"522671100","FAX":"522671166","EMAIL ID":"residency.lucknow@tajhotels.com","WEBSITE":"NA","TYPE":"5 Star Deluxe"},{"Rooms":"130","HOTEL NAME":"Taj Ganges Varanasi","ADDRESS":"\"Nadesar Palace GraoundsNadesar, Varanasi - 221002, UTTAR PRADESH\"","LATITUDE":"25.3361928000000000","LONGITUDE":"82.9880366999999000","STATE":"UTTAR PRADESH","PHONE":"0542-2503001/019","FAX":"0542-2501343","EMAIL ID":"ganges.varanasi@tajhotels.com","WEBSITE":"www.tajhotels.com","TYPE":"5 Star Deluxe"},{"Rooms":"140","HOTEL NAME":"Radisson Hotel","ADDRESS":"\"Taj East Gate Road, Agra - 282 001, UTTAR PRADESH\"","LATITUDE":"27.1628330000000000","LONGITUDE":"78.0562449999999000","STATE":"UTTAR PRADESH","PHONE":"0562-4055555","FAX":"0562-4055556","EMAIL ID":"reservations@rdagra.in","WEBSITE":"www.radisson.com","TYPE":"5 Star Deluxe"},{"Rooms":"126","HOTEL NAME":"Radisson MBD Hotel","ADDRESS":"\"Plot No. L-2Sector - 18, Noida - 201 301, UTTAR PRADESH\"","LATITUDE":"28.5684622000000000","LONGITUDE":"77.3227268000000000","STATE":"UTTAR PRADESH","PHONE":"0120-4300000","FAX":"0120-4303000","EMAIL ID":"reservations@radissonmbd.com","WEBSITE":"www.radissonblu.com","TYPE":"5 Star Deluxe"},{"Rooms":"74","HOTEL NAME":"Holiday Regency","ADDRESS":"\"Holiday Regency (A Unit of Omsons Holiday Inn Pvt. ltd)Om Enclave, (KM, Delhi Road , NH-24, Moradabad, UTTAR PRADESH\"","LATITUDE":"28.8239687000000000","LONGITUDE":"78.6858730999999000","STATE":"UTTAR PRADESH","PHONE":"591301235","FAX":"5913012375","EMAIL ID":"info@holidayregency.com","WEBSITE":"holidayregency.com","TYPE":"5 Star Deluxe"},{"Rooms":"90","HOTEL NAME":"Jaypee Residency Manor","ADDRESS":"\"Barlowganj, Mussoorie, UTTARAKHAND\"","LATITUDE":"30.4388160000000000","LONGITUDE":"78.0853389999999000","STATE":"UTTARAKHAND","PHONE":"1352631800","FAX":"1352631022","EMAIL ID":"jrm@jaypeehotels.com","WEBSITE":"NA","TYPE":"5 Star Deluxe"},{"Rooms":"239","HOTEL NAME":"ITC Sonar","ADDRESS":"\"1, JBS Haldane AvenueOpp. Science City, Kolkata-700046, WEST BENGAL\"","LATITUDE":"22.5443200000000000","LONGITUDE":"88.3980890000000000","STATE":"WEST BENGAL","PHONE":"033-23004516","FAX":"033-23004500","EMAIL ID":"reservations.itcsonar@itchotels.in","WEBSITE":"NA","TYPE":"5 Star Deluxe"},{"Rooms":"157","HOTEL NAME":"Hotel Ista Hyderabad","ADDRESS":"\"Plot No-7, Road No. 2I.T. Park, Nanakramguda, Gachibowali, Hyderabad - 500019, ANDHRA PRADESH\"","LATITUDE":"17.4185331000000000","LONGITUDE":"78.3421604000000000","STATE":"ANDHRA PRADESH","PHONE":"040-44508888","FAX":"040-44509999","EMAIL ID":"sales@istahyderabad.com","WEBSITE":"www.anandaspa.com","TYPE":"5 Star"},{"Rooms":"288","HOTEL NAME":"Hotel Novotel Hyderabad","ADDRESS":"\"Novoel & HIVV Complex, Near Hitech City , P.O Bag No-1101, Cyberabad Post Office, Hyderabad, ANDHRA PRADESH\"","LATITUDE":"17.4728353000000000","LONGITUDE":"78.3727986999999000","STATE":"ANDHRA PRADESH","PHONE":"4066824422","FAX":"4066844422","EMAIL ID":"H6182-re@accor.com","WEBSITE":"NA","TYPE":"5 Star"},{"Rooms":"305","HOTEL NAME":"Novotel Hyderabad Airport","ADDRESS":"\"GMR Hyderabad International Airport Ltd., Rajiv Gandhi International Airport Shamshabad, Ranga Reddy Dist , ANDHRA PRADESH\"","LATITUDE":"17.2424915000000000","LONGITUDE":"78.4546850999999000","STATE":"ANDHRA PRADESH","PHONE":"4066250000","FAX":"4066250001","EMAIL ID":"reservations@novotelhyderabadairport.com","WEBSITE":"NA","TYPE":"5 Star"},{"Rooms":"95","HOTEL NAME":"The Gateway Hotel","ADDRESS":"\"Beach Road, Visakhapatnam , ANDHRA PRADESH\"","LATITUDE":"17.7116088000000000","LONGITUDE":"83.3167639999999000","STATE":"ANDHRA PRADESH","PHONE":"8916623670","FAX":"8912569867","EMAIL ID":"gateway.visakhapatnam@tajhotels.com","WEBSITE":"NA","TYPE":"5 Star"},{"Rooms":"151","HOTEL NAME":"Taj Deccan - Hyderabad","ADDRESS":"\"Road No.1Banjara Hills, Hyderabad - 34, ANDHRA PRADESH\"","LATITUDE":"17.4179195000000000","LONGITUDE":"78.4507644999999000","STATE":"ANDHRA PRADESH","PHONE":"4066662323","FAX":"4066661313","EMAIL ID":"tdhgm.hyd@tajhotels.com","WEBSITE":"NA","TYPE":"5 Star"},{"Rooms":"88","HOTEL NAME":"Leo Meridian Infrastructure","ADDRESS":"\"Bommaraspet (Village)Shamirpet Mandal, Ranga Reddy District, ANDHRA PRADESH\"","LATITUDE":"17.5896881000000000","LONGITUDE":"78.5703697000000000","STATE":"ANDHRA PRADESH","PHONE":"4066404455","FAX":"4066627744","EMAIL ID":"info@lmiphl.com","WEBSITE":"www.lmiphl.com","TYPE":"5 Star"},{"Rooms":"155","HOTEL NAME":"Hotel Mountview","ADDRESS":"\"Sector 10, Chandigarh, CHANDIGARH\"","LATITUDE":"30.7537476000000000","LONGITUDE":"76.7885076000000000","STATE":"CHANDIGARH","PHONE":"1724671111","FAX":"1722742220","EMAIL ID":"mountview@citcochandigarh.com","WEBSITE":"NA","TYPE":"5 Star"},{"Rooms":"208","HOTEL NAME":"Hotel Crowne Plaza Today","ADDRESS":"\"Plot No. 1Community Centre, Phase 1, Okhla, New Delhi - 110 020, DELHI\"","LATITUDE":"28.5289242000000000","LONGITUDE":"28.5289242000000000","STATE":"DELHI","PHONE":"011-40687700-17","FAX":"011-41634480","EMAIL ID":"reservations@cpokhla.com","WEBSITE":"www.crowneplaza.com","TYPE":"5 Star"},{"Rooms":"88","HOTEL NAME":"Vivanta by Taj Ambassador","ADDRESS":"\"Sujan Singh ParkCornwallis Road, New Delhi - 110003, DELHI\"","LATITUDE":"28.6016672000000000","LONGITUDE":"77.2289991999999000","STATE":"DELHI","PHONE":"011-66261000","FAX":"011-24632252","EMAIL ID":"vivanta.ambassador@tajhotels.com","WEBSITE":"www.vivantabytaj.com","TYPE":"5 Star"},{"Rooms":"102","HOTEL NAME":"Fortune Select Regina","ADDRESS":"\"376, Off. Fort Aquada Road , Candolim , GOA\"","LATITUDE":"15.5114259000000000","LONGITUDE":"73.7722239000000000","STATE":"GOA","PHONE":"8323988444","FAX":"","EMAIL ID":"velu@acronindia.com","WEBSITE":"","TYPE":"5 Star"},{"Rooms":"126","HOTEL NAME":"Bogmallo Beach Resort","ADDRESS":"\"P.O. Bogmallo, Goa - 403806, GOA\"","LATITUDE":"15.3687229000000000","LONGITUDE":"73.8354268000000000","STATE":"GOA","PHONE":"0832-2538222-13","FAX":"0832-2538236","EMAIL ID":"bbrtwhl@sancharnet.in","WEBSITE":"www.bogmallobeachresort.com","TYPE":"5 Star"},{"Rooms":"57","HOTEL NAME":"DEVAAYA AYURVEDA SPA RESORT","ADDRESS":"\"DIWAR, ILHAS ,GOA , GOA\"","LATITUDE":"15.5390186000000000","LONGITUDE":"73.9085350000000000","STATE":"GOA","PHONE":"83222280500","FAX":"8322280678","EMAIL ID":"www.alconvictorgroup.com","WEBSITE":"NA","TYPE":"5 Star"},{"Rooms":"203","HOTEL NAME":"Holiday Inn Resort","ADDRESS":"\"Mobor Beach Cavelossim Salcete,Goa, GOA\"","LATITUDE":"15.1588096000000000","LONGITUDE":"73.9480835000000000","STATE":"GOA","PHONE":"8322871303","FAX":"8322871333","EMAIL ID":"NA","WEBSITE":"NA","TYPE":"5 Star"},{"Rooms":"43","HOTEL NAME":"The Crown Goa","ADDRESS":"\"(A unit of Vision Enterprises) Bairo Alto Dos Pilotos, Goa, GOA\"","LATITUDE":"15.4994941000000000","LONGITUDE":"73.8306029000000000","STATE":"GOA","PHONE":"8322400000","FAX":"8322400010","EMAIL ID":"reservations@thecrowngoa.com","WEBSITE":"NA","TYPE":"5 Star"},{"Rooms":"50","HOTEL NAME":"Hotel Neo Majestic","ADDRESS":"\"Plot No. 104/1APorvorim, North Goa, GOA\"","LATITUDE":"15.5167155000000000","LONGITUDE":"73.8328265999999000","STATE":"GOA","PHONE":"0832 2410378","FAX":"0832 2415715","EMAIL ID":"neomajestic@neomajestic.com","WEBSITE":"www.neomajestic.com","TYPE":"5 Star"},{"Rooms":"104","HOTEL NAME":"The Kenilworth Beach Resort & Spa","ADDRESS":"\"Utorda, Salcete - 403 713, GOA\"","LATITUDE":"15.3184410000000000","LONGITUDE":"73.9019950000000000","STATE":"GOA","PHONE":"0832-6698888","FAX":"0832-2754183","EMAIL ID":"kenilworthgoa@kenilworthhotels.com","WEBSITE":"www.kenilworthhotels.com","TYPE":"5 Star"},{"Rooms":"14","HOTEL NAME":"Hotel La Calypso Get Aways.","ADDRESS":"\"Saunta Vaddo, Baga Calangute Road, Calanguta VPBardez Goa, GOA\"","LATITUDE":"15.5609975000000000","LONGITUDE":"73.7527777000000000","STATE":"GOA","PHONE":"8322275777","FAX":"8322275815","EMAIL ID":"reservations@lacalypsohotels.com","WEBSITE":"www.lacalypsohotels.com","TYPE":"5 Star"},{"Rooms":"75","HOTEL NAME":"The \"O\"","ADDRESS":"\"S. No. 114/1Next to Kingfisher Villa, Condolim, Bardez - 403515, GOA\"","LATITUDE":"15.5063464000000000","LONGITUDE":"73.7702426000000000","STATE":"GOA","PHONE":"8323047000","FAX":"8323047009","EMAIL ID":"info@ohotelsindia.com/res.goa@ohotelsindia.com","WEBSITE":"NA","TYPE":"5 Star"},{"Rooms":"43","HOTEL NAME":"Sun-n-Sand Hotel","ADDRESS":"\"Bairo Alto Dos PilotosJose Falcao Road, Panjim, GOA\"","LATITUDE":"15.5063464000000000","LONGITUDE":"73.7702426000000000","STATE":"GOA","PHONE":"8322400000","FAX":"8322400010","EMAIL ID":"resgoa@sunnsandhotel.com","WEBSITE":"NA","TYPE":"5 Star"},{"Rooms":"80","HOTEL NAME":"The Imperial Palace","ADDRESS":"\"Dr Yagnik Road , Rajkot , GUJARAT\"","LATITUDE":"22.2950232000000000","LONGITUDE":"70.7908472000000000","STATE":"GUJARAT","PHONE":"2812480000","FAX":"2812480009","EMAIL ID":"mail@hotelimperialpalace.biz","WEBSITE":"NA","TYPE":"5 Star"},{"Rooms":"63","HOTEL NAME":"Le Meridien","ADDRESS":"\"C/o. Associated Hotels Pvt. Ltd. Chand Suraj Estate Near Nehru Bridge, Khanpur, Ahmedabad, GUJARAT\"","LATITUDE":"23.0289480000000000","LONGITUDE":"72.5775560000000000","STATE":"GUJARAT","PHONE":"7925505505","FAX":"7925505501","EMAIL ID":"gmoffice.ahmedabad@lemeridien.com","WEBSITE":"NA","TYPE":"5 Star"},{"Rooms":"91","HOTEL NAME":"The Gateway Hotel Ummed","ADDRESS":"\"International Airport CircleNext to Army Cantonment, Hansol, Ahmedabad - 382 475, GUJARAT\"","LATITUDE":"23.0825989000000000","LONGITUDE":"72.6168835999999000","STATE":"GUJARAT","PHONE":"079-66661234","FAX":"079-66664444","EMAIL ID":"gateway.ahmedabad@tajhotels.com","WEBSITE":"www.thegatewayhotels.com","TYPE":"5 Star"},{"Rooms":"80","HOTEL NAME":"The Galaxy Hotel","ADDRESS":"\"NH-8Sector-15, Part-II, Gurgaon - 122001, HARYANA\"","LATITUDE":"28.4627961000000000","LONGITUDE":"77.0488653000000000","STATE":"HARYANA","PHONE":"0124-4565000","FAX":"0124-4565151","EMAIL ID":"info@galaxyhotel.in","WEBSITE":"www.galaxyhotel.in","TYPE":"5 Star"},{"Rooms":"170","HOTEL NAME":"THE CHANCERY PAVILION","ADDRESS":"\"ELIXIR ENTERPRISES & HOTELS PVT LTD., NO-135, RESIDENCY ROAD, BANGALORE, KARNATAKA\"","LATITUDE":"12.9657625000000000","LONGITUDE":"77.5987835000000000","STATE":"KARNATAKA","PHONE":"8041414141","FAX":"8041414242","EMAIL ID":"gm@chanceryhotels.com","WEBSITE":"NA","TYPE":"5 Star"},{"Rooms":"162","HOTEL NAME":"The Zuri - Whitefield","ADDRESS":"\"Rajpalya Hoodi - RoadWhitefield, Bengaluru - 560048, KARNATAKA\"","LATITUDE":"12.9900470000000000","LONGITUDE":"77.7231420000000000","STATE":"KARNATAKA","PHONE":"8066657272","FAX":"8066657282","EMAIL ID":"reservations@zuribangalore.com","WEBSITE":"www.thezurihotels.com","TYPE":"5 Star"},{"Rooms":"108","HOTEL NAME":"Fortune Park J. P. Palace","ADDRESS":"\"No.-3 Abba RoadNazarabad Mohalla, Mysore, KARNATAKA\"","LATITUDE":"12.3182628000000000","LONGITUDE":"76.6630517999999000","STATE":"KARNATAKA","PHONE":"8213988444","FAX":"8213984444","EMAIL ID":"rahul.nama@fortunehotels.in","WEBSITE":"NA","TYPE":"5 Star"},{"Rooms":"195","HOTEL NAME":"Hotel Le Meridien - Bangalore","ADDRESS":"\"No. 28, Sankey RoadP.B. No. 174, Bangalore - 560052, KARNATAKA\"","LATITUDE":"12.9902552000000000","LONGITUDE":"77.5861482000000000","STATE":"KARNATAKA","PHONE":"080-22262233/2228282","FAX":"080-22267676/2226205","EMAIL ID":"reservations.bangalore@lemeridien.com/leme.bangalore@lemeridien.com","WEBSITE":"www.lemeridien-bangalore.com","TYPE":"5 Star"},{"Rooms":"262","HOTEL NAME":"Movenpick Hotel & Spa Bangalore","ADDRESS":"\"115 Pipeline Road near BEL CircleGokula Extension, Bangalore, KARNATAKA\"","LATITUDE":"13.0425056000000000","LONGITUDE":"77.5549051999999000","STATE":"KARNATAKA","PHONE":"8043001000","FAX":"8043001010","EMAIL ID":"hotel.bangalore@moevenpick.com","WEBSITE":"moevenpick-hotel.com","TYPE":"5 Star"},{"Rooms":"38","HOTEL NAME":"Club Mahindra Lakeview","ADDRESS":"\"Munner, Chinnakanal VillageVia: Suryanelli, Idukki District - 685618, KERALA\"","LATITUDE":"10.0389680000000000","LONGITUDE":"77.1635175999999000","STATE":"KERALA","PHONE":"04868-249290-91","FAX":"04868-249227","EMAIL ID":"gm.munnar@clubmahindra.com","WEBSITE":"www.clubmahindra.com","TYPE":"5 Star"},{"Rooms":"95","HOTEL NAME":"The Quilon Beach Hotel","ADDRESS":"\"Beach Kollam-691001, Kollam, KERALA\"","LATITUDE":"8.8753910000000000","LONGITUDE":"76.5922839999999000","STATE":"KERALA","PHONE":"4742769999","FAX":"4742749009","EMAIL ID":"crs@qresorts.in","WEBSITE":"NA","TYPE":"5 Star"},{"Rooms":"64","HOTEL NAME":"The Elephant Court","ADDRESS":"\"Off Kumily - Thekkady RoadThekkady P.O., Kumily - 685 536, Idukki District, KERALA\"","LATITUDE":"9.6033460000000000","LONGITUDE":"77.1728359999999000","STATE":"KERALA","PHONE":"04869-224696,224697,","FAX":"04869-224238","EMAIL ID":"info@theelephantcourt.com","WEBSITE":"www.theelephantcourt.com","TYPE":"5 Star"},{"Rooms":"44","HOTEL NAME":"Turtle On The Beach","ADDRESS":"\"VPI/43ITDC Road, Kovalam, Trivandrum - 685 527, KERALA\"","LATITUDE":"8.3903959999999900","LONGITUDE":"76.9762040000000000","STATE":"KERALA","PHONE":"0471-2514000","FAX":"0471-2514001","EMAIL ID":"info.turtle@thrhotels.com","WEBSITE":"www.turtleonthebeach.com","TYPE":"5 Star"},{"Rooms":"67","HOTEL NAME":"Casino Hotel","ADDRESS":"\"Willingdon Island, Cochin - 682 003, KERALA\"","LATITUDE":"9.9614630000000000","LONGITUDE":"76.2693520000000000","STATE":"KERALA","PHONE":"0484-2668421-2666821","FAX":"0484-2668001","EMAIL ID":"casinohotel@cghearth.com","WEBSITE":"www.cghearth.com","TYPE":"5 Star"},{"Rooms":"85","HOTEL NAME":"Trident, Cochin","ADDRESS":"\"Bristow RoadWillingdon Island, Cochin - 682003, KERALA\"","LATITUDE":"9.9592898000000000","LONGITUDE":"76.2691629000000000","STATE":"KERALA","PHONE":"4843081000","FAX":"4843081002","EMAIL ID":"reservations@tridenthotels.com","WEBSITE":"www.tridenthotels.com","TYPE":"5 Star"},{"Rooms":"108","HOTEL NAME":"The Gateway Hotel -Ernakulam","ADDRESS":"\"Marine DriveErnakulam, Kochi - 682 011, KERALA\"","LATITUDE":"9.9764692000000000","LONGITUDE":"76.2770190000000000","STATE":"KERALA","PHONE":"0484-2371471, 667330","FAX":"0484-2371481, 667344","EMAIL ID":"gateway.ernakulam@tajhotels.com","WEBSITE":"www.thegatewayhotels.com","TYPE":"5 Star"},{"Rooms":"72","HOTEL NAME":"Kadavu Resort & Ayurveda Centre","ADDRESS":"\"NH-17, Calicut Bye Pass Road, Azhijilam P.O., near Feroke CollegeCalicut - 673632, (A Division of Yenkay complex Pvt. Ltd.), KERALA\"","LATITUDE":"11.2047271000000000","LONGITUDE":"75.8664912999999000","STATE":"KERALA","PHONE":"0483-2830023,027,570","FAX":"0483-2830575","EMAIL ID":"info@kadavuresorts.com","WEBSITE":"www.kadavuresorts.com","TYPE":"5 Star"},{"Rooms":"57","HOTEL NAME":"The Muthoot Plaza Hotel","ADDRESS":"\"Punnen Road, Thiruvananthapuram - 695039, KERALA\"","LATITUDE":"8.4996119999999900","LONGITUDE":"76.9505010000000000","STATE":"KERALA","PHONE":"0471-2337733","FAX":"0471-2337734","EMAIL ID":"gmtmp@sarovarhotels.com","WEBSITE":"www.sarovarhotels.com","TYPE":"5 Star"},{"Rooms":"137","HOTEL NAME":"Taj Residency - Trivandrum","ADDRESS":"\"T.C. No. 24/1987 (2)C.V. Raman Pillai Road, Thyeaud, Thiruvananthapuram - 695014, KERALA\"","LATITUDE":"8.4972587999999900","LONGITUDE":"76.9581235999999000","STATE":"KERALA","PHONE":"0471-6612345","FAX":"0471-6612121","EMAIL ID":"taj.trivandrum@tajhotels.com","WEBSITE":"www.tajhotels.com","TYPE":"5 Star"},{"Rooms":"82","HOTEL NAME":"Hotel Ramada -  Khajuraho","ADDRESS":"\"(Owned By Jagdish Shanti Hotel Pvt. Ltd.)Airport Road, Khajuraho - 471606, MADHYA PRADESH\"","LATITUDE":"24.8378844000000000","LONGITUDE":"79.9212587000000000","STATE":"MADHYA PRADESH","PHONE":"07686-272302-03","FAX":"07686-272304","EMAIL ID":"reservations@ramadahotelkhajuraho.com","WEBSITE":"www.ramadahotelkhajuraho.com","TYPE":"5 Star"},{"Rooms":"90","HOTEL NAME":"Radisson Jass Hotel","ADDRESS":"\"By Pass RoadKhajuraho, Dist Chattarpur, MADHYA PRADESH\"","LATITUDE":"24.8426634000000000","LONGITUDE":"79.9235779999999000","STATE":"MADHYA PRADESH","PHONE":"07686272344/274461","FAX":"7686272345","EMAIL ID":"reservations@radissionkhajuraho.com","WEBSITE":"www.radisson.com","TYPE":"5 Star"},{"Rooms":"98","HOTEL NAME":"Grand Sarovar Premiere","ADDRESS":"\"Junction of Veer Savarkar Flyover &S.V. Road, Goregaon (West)-400062, MAHARASHTRA\"","LATITUDE":"19.1733505000000000","LONGITUDE":"72.8458507000000000","STATE":"MAHARASHTRA","PHONE":"0224215 8000/2871 80","FAX":"0222871 8001","EMAIL ID":"gm@grandsarovar.com/gsp@sarovarhotels.com","WEBSITE":"www.grandsarovar.com","TYPE":"5 Star"},{"Rooms":"141","HOTEL NAME":"Hotel Meluha","ADDRESS":"\"Building 7, Sector-V, Central Avenue Hiranandani Gardens Powai, Mumbai, MAHARASHTRA\"","LATITUDE":"19.1178192000000000","LONGITUDE":"72.9109876000000000","STATE":"MAHARASHTRA","PHONE":"2225755555","FAX":"2225755566","EMAIL ID":"sam@meluhafernhotel.com","WEBSITE":"NA","TYPE":"5 Star"},{"Rooms":"92","HOTEL NAME":"Hotel Tunga Regency Pvt.Ltd.","ADDRESS":"\"PLOT NO-37, SECTOR 30-A, VASHI , NAVI MUMBAI , Mumbai , MAHARASHTRA\"","LATITUDE":"19.0670709000000000","LONGITUDE":"72.9992841000000000","STATE":"MAHARASHTRA","PHONE":"2266801818","FAX":"2266801800","EMAIL ID":"www.tungahotels.com","WEBSITE":"NA","TYPE":"5 Star"},{"Rooms":"115","HOTEL NAME":"Ramada Plaza Palm Grove","ADDRESS":"\"Juhu Beach, Mumbai - 400049, MAHARASHTRA\"","LATITUDE":"19.0986239000000000","LONGITUDE":"72.8267805000000000","STATE":"MAHARASHTRA","PHONE":"022-26112323","FAX":"022-26113682/2611064","EMAIL ID":"palmgrove@krahejahospitality.com","WEBSITE":"www.ramadainternational.com","TYPE":"5 Star"},{"Rooms":"65","HOTEL NAME":"The Shalimar Hotel","ADDRESS":"\"August Kranti Marg , Mumbai , MAHARASHTRA\"","LATITUDE":"18.9639998000000000","LONGITUDE":"72.8060284000000000","STATE":"MAHARASHTRA","PHONE":"2266641000","FAX":"2266641010","EMAIL ID":"theshalimarhotel@vsnl.com","WEBSITE":"www.theshalimarhotel.com","TYPE":"5 Star"},{"Rooms":"93","HOTEL NAME":"THE PRIDE HOTEL","ADDRESS":"\"OPP. AIRPORT WARDHA ROAD , Nagpur , MAHARASHTRA\"","LATITUDE":"21.0870753000000000","LONGITUDE":"79.0644916999999000","STATE":"MAHARASHTRA","PHONE":"7122291102","FAX":"7122290440","EMAIL ID":"PRIDE_NGP@SANCHARNET.COM","WEBSITE":"WWW.PRIDEGROUP.NET","TYPE":"5 Star"},{"Rooms":"246","HOTEL NAME":"Four Points By Sheraton","ADDRESS":"\"S.No.197/3, Nagar Road,Viman Nagar, Pune, MAHARASHTRA\"","LATITUDE":"18.5624828000000000","LONGITUDE":"73.9224160000000000","STATE":"MAHARASHTRA","PHONE":"2039406699","FAX":"2030930930","EMAIL ID":"fo@punefourpoints.com","WEBSITE":"NA","TYPE":"5 Star"},{"Rooms":"110","HOTEL NAME":"Taj Blue Diamond","ADDRESS":"\"11Koregaon Road, Pune - 411001, MAHARASHTRA\"","LATITUDE":"18.5386450000000000","LONGITUDE":"73.8859210000000000","STATE":"MAHARASHTRA","PHONE":"020-66025555","FAX":"020-66027755","EMAIL ID":"sandip.mukherjee@tajhotels.com","WEBSITE":"www.tajhotels.com","TYPE":"5 Star"},{"Rooms":"111","HOTEL NAME":"The O Hotel","ADDRESS":"\"Survey No.371Final Plot No.293, Koregaon, Pune - 411001, MAHARASHTRA\"","LATITUDE":"18.5400617000000000","LONGITUDE":"73.8876427999999000","STATE":"MAHARASHTRA","PHONE":"020-40011000","FAX":"020-40011009","EMAIL ID":"info@ohotelsindia.com","WEBSITE":"www.ohotelsindia.com","TYPE":"5 Star"},{"Rooms":"64","HOTEL NAME":"Taj Residency - Aurangabad","ADDRESS":"\"8-N-12CIDCO RAUZA BAGH, Aurangabad, MAHARASHTRA\"","LATITUDE":"19.9075980000000000","LONGITUDE":"75.3464669999999000","STATE":"MAHARASHTRA","PHONE":"2406613737","FAX":"2406613939","EMAIL ID":"residency.aurangabad@tajhotels.com","WEBSITE":"NA","TYPE":"5 Star"},{"Rooms":"108","HOTEL NAME":"Hotel Sea Princess","ADDRESS":"\"969 Juhu Beach , Mumbai , MAHARASHTRA\"","LATITUDE":"19.0933132000000000","LONGITUDE":"72.8280278000000000","STATE":"MAHARASHTRA","PHONE":"2226611111","FAX":"2226611144","EMAIL ID":"seaprincess@vsnl.com","WEBSITE":"NA","TYPE":"5 Star"},{"Rooms":"70","HOTEL NAME":"The Gateway Hotel","ADDRESS":"\"P-17, MIDC Ambad MumbaiMumbai - Agra Road, Nashik, MAHARASHTRA\"","LATITUDE":"19.9575310000000000","LONGITUDE":"73.7545119999999000","STATE":"MAHARASHTRA","PHONE":"2535604499","FAX":"2535603366","EMAIL ID":"residency.nashik@tajhotels.com","WEBSITE":"tajhotels.com","TYPE":"5 Star"},{"Rooms":"116","HOTEL NAME":"Hotel Parc Estique","ADDRESS":"\"Viman NagarNagar Road, Pune - 411014, MAHARASHTRA\"","LATITUDE":"18.5617890000000000","LONGITUDE":"73.9197150000000000","STATE":"MAHARASHTRA","PHONE":"2041004100","FAX":"2041004111","EMAIL ID":"cmd@parcestique.com/info@parcestique.com","WEBSITE":"www.estiquehotels.com","TYPE":"5 Star"},{"Rooms":"62","HOTEL NAME":"Radisson Windsor Hotel","ADDRESS":"\"Windsor Fountain G.T. Road, Near BMC Chowk , Jalandhar , PUNJAB\"","LATITUDE":"31.3190933000000000","LONGITUDE":"75.5850701000000000","STATE":"PUNJAB","PHONE":"1814671234","FAX":"815082233","EMAIL ID":"radjal@vsnl.com","WEBSITE":"NA","TYPE":"5 Star"},{"Rooms":"117","HOTEL NAME":"Majestic Park Plaza","ADDRESS":"\"P.O. BOX NO 333 BHAI BALA CHOWK, FEROZEPUR ROAD. , Ludhiana , PUNJAB\"","LATITUDE":"30.9013743000000000","LONGITUDE":"75.8313194000000000","STATE":"PUNJAB","PHONE":"1612773000","FAX":"1612771888","EMAIL ID":"www.fhraI.com","WEBSITE":"NA","TYPE":"5 Star"},{"Rooms":"95","HOTEL NAME":"Hotel Mansingh","ADDRESS":"\"Sansar Chandra Road, Jaipur, RAJASTHAN\"","LATITUDE":"26.9196684000000000","LONGITUDE":"75.8008320000000000","STATE":"RAJASTHAN","PHONE":"01412378771, 511, 77","FAX":"1412377582","EMAIL ID":"sales.jpr@mansinghhotels.com","WEBSITE":"NA","TYPE":"5 Star"},{"Rooms":"134","HOTEL NAME":"Hotel Trident, Jaipur","ADDRESS":"\"Amber Fort RoadOpp. Jal Mahal, Jaipur, RAJASTHAN\"","LATITUDE":"26.9573046000000000","LONGITUDE":"75.8428450999999000","STATE":"RAJASTHAN","PHONE":"0141-2670101","FAX":"0141-2670303","EMAIL ID":"reservations@tridenthotels.com","WEBSITE":"www.tridenthotels.com","TYPE":"5 Star"},{"Rooms":"90","HOTEL NAME":"Fortune Select Metropolitan - Jaipur","ADDRESS":"\"Fortune Select Metropolitan, Nehru Sahkar Bhawan,C-Scheme, Bias Godam Circle, Jaipur, RAJASTHAN\"","LATITUDE":"26.9025631000000000","LONGITUDE":"75.7936778999999000","STATE":"RAJASTHAN","PHONE":"9.11413E+11","FAX":"9.11413E+11","EMAIL ID":"metropolitan@fortunehotels.in","WEBSITE":"NA","TYPE":"5 Star"},{"Rooms":"97","HOTEL NAME":"Chokhi Dhani","ADDRESS":"\"The Ethntic Village Resort12 Miles, Via Vatika, Tonk Road, Jaipur - 303905, RAJASTHAN\"","LATITUDE":"26.7666115000000000","LONGITUDE":"75.8371447000000000","STATE":"RAJASTHAN","PHONE":"0141-2770555-56","FAX":"0141-2770558","EMAIL ID":"resort@chokhidhani.com","WEBSITE":"www.chokhidhani.com","TYPE":"5 Star"},{"Rooms":"144","HOTEL NAME":"Inder Residency","ADDRESS":"\"(A Unit of Seasons Hotels Pvt. Ltd.)Goverdhan Vilas, Shikarbadi Road, Ekling Nagar, Udaipur - 313 001, RAJASTHAN\"","LATITUDE":"24.5509170000000000","LONGITUDE":"73.6850159999999000","STATE":"RAJASTHAN","PHONE":"0294-2489888","FAX":"0294-2488733","EMAIL ID":"seasonshotel@gmail.com","WEBSITE":"www.inderresidency.in","TYPE":"5 Star"},{"Rooms":"25","HOTEL NAME":"Denzong Regency","ADDRESS":"\"Cherry Banks,Development Area, Gangtok, SIKKIM\"","LATITUDE":"27.3394585000000000","LONGITUDE":"88.6122360999999000","STATE":"SIKKIM","PHONE":"3592201565","FAX":"35922012568","EMAIL ID":"welcomheritage_denzongregency@hotmail.com","WEBSITE":"denzongregency.com","TYPE":"5 Star"},{"Rooms":"63","HOTEL NAME":"The Gateway Hotel Pasumalai Madurai","ADDRESS":"\"(formerly known as Taj Garden Retreat Madurai)40 T.P.K. Road, Pasumalai, Madurai - 625 004, TAMIL NADU\"","LATITUDE":"9.9001199999999900","LONGITUDE":"78.0834759999999000","STATE":"TAMIL NADU","PHONE":"0452-6633000","FAX":"0452-6633081","EMAIL ID":"gateway.madurai@tajhotels.com","WEBSITE":"www.thegatewayhotels.com","TYPE":"5 Star"},{"Rooms":"101","HOTEL NAME":"Radisson Hotel GRT","ADDRESS":"\"G S T Road St Thomas Mount Chennai, Chennai, TAMIL NADU\"","LATITUDE":"12.9944534000000000","LONGITUDE":"80.1875060999999000","STATE":"TAMIL NADU","PHONE":"4422310101","FAX":"4422310202","EMAIL ID":"reservations@radissongrt.com","WEBSITE":"NA","TYPE":"5 Star"},{"Rooms":"167","HOTEL NAME":"Trident - Chennai","ADDRESS":"\"1/24, GST RoadMeenambakkam, TAMIL NADU\"","LATITUDE":"12.9937755000000000","LONGITUDE":"80.1862203000000000","STATE":"TAMIL NADU","PHONE":"044-22344747","FAX":"044-22346699","EMAIL ID":"reservations@tridenthotels.com","WEBSITE":"www.tridenthotels.com","TYPE":"5 Star"},{"Rooms":"237","HOTEL NAME":"Hotel Clarks Shiraz","ADDRESS":"\"54Taj Road, Agra - 282001, UTTAR PRADESH\"","LATITUDE":"27.1594180000000000","LONGITUDE":"78.0263970000000000","STATE":"UTTAR PRADESH","PHONE":"0562-2226121-27","FAX":"0562-2226128","EMAIL ID":"info@hotelclarksshiraz.com/resv@hotelclarks.in","WEBSITE":"www.hotelclarksshiraz.com","TYPE":"5 Star"},{"Rooms":"138","HOTEL NAME":"Hotel Trident - Agra","ADDRESS":"\"Fatehabad Road, Agra, UTTAR PRADESH\"","LATITUDE":"27.1594096000000000","LONGITUDE":"78.0599132999999000","STATE":"UTTAR PRADESH","PHONE":"5622235000","FAX":"5622231812","EMAIL ID":"reservations@tridenthotels.com","WEBSITE":"NA","TYPE":"5 Star"},{"Rooms":"216","HOTEL NAME":"Country Inn & Suites by Carlson.","ADDRESS":"\"64/6, Site - IVSahibabad, (Distt. Ghaziabad) - 201 010, UTTAR PRADESH\"","LATITUDE":"28.6543160000000000","LONGITUDE":"77.3437381000000000","STATE":"UTTAR PRADESH","PHONE":"0120-4180000","FAX":"0120-4180088","EMAIL ID":"info@cissahibabad.in","WEBSITE":"www.countryinns.com","TYPE":"5 Star"},{"Rooms":"116","HOTEL NAME":"Radisson Hotel Varanasi","ADDRESS":"\"The Mall Cantonment, Varanasi Uttar Pradesh, Varanasi, UTTAR PRADESH\"","LATITUDE":"25.3376823000000000","LONGITUDE":"82.9793466999999000","STATE":"UTTAR PRADESH","PHONE":"5422501515","FAX":"5422501516","EMAIL ID":"reservations@radissonvns.com","WEBSITE":"NA","TYPE":"5 Star"},{"Rooms":"100","HOTEL NAME":"The Gateway Hotel, Agra","ADDRESS":"\"Taj GanjFatehabad Road, Agra - 282001, UTTAR PRADESH\"","LATITUDE":"27.1610001000000000","LONGITUDE":"78.0401955999999000","STATE":"UTTAR PRADESH","PHONE":"5626602000","FAX":"5622232420","EMAIL ID":"tajview.agra@tajhotels.com/gateway.agra@tajhotels.com","WEBSITE":"www.tajhotels.com","TYPE":"5 Star"},{"Rooms":"184","HOTEL NAME":"Hotel Hindusthan International","ADDRESS":"\"235/1A.J.C. Bose Road, Kolkata - 700020, WEST BENGAL\"","LATITUDE":"22.5410090000000000","LONGITUDE":"88.3504789999999000","STATE":"WEST BENGAL","PHONE":"033-40018000-4001808","FAX":"033-22800111","EMAIL ID":"reservation@hindusthan.com","WEBSITE":"www.hhihotels.com","TYPE":"5 Star"},{"Rooms":"147","HOTEL NAME":"Swissotel Kolkata Neotia Vista","ADDRESS":"\"M/s Swissotel Kolkata Neotia Vista City Center New Town Action Area 2/DPlot No. 11/5 New Town Rajarhat, Kolkata, WEST BENGAL\"","LATITUDE":"22.6225716000000000","LONGITUDE":"88.4500042000000000","STATE":"WEST BENGAL","PHONE":"9.13366E+11","FAX":"","EMAIL ID":"subrata.sarkar@swissotel.com","WEBSITE":"www.swissotel.com","TYPE":"5 Star"},{"Rooms":"94","HOTEL NAME":"The Golkonda","ADDRESS":"\"(A Unit of Golkonda Hospitality Services & REsorts Ltd.) 10-1-124Masab Tank, Hyderabad, ANDHRA PRADESH\"","LATITUDE":"17.4045089000000000","LONGITUDE":"78.4537127000000000","STATE":"ANDHRA PRADESH","PHONE":"8246660420","FAX":"8246660585","EMAIL ID":"gateway.mangalore@tajhotels.com","WEBSITE":"NA","TYPE":"4 Star"},{"Rooms":"44","HOTEL NAME":"Palm Beach Hotel","ADDRESS":"\"Beach Road, Visakhapatnam - 530 023, ANDHRA PRADESH\"","LATITUDE":"17.7211181000000000","LONGITUDE":"83.3357884999999000","STATE":"ANDHRA PRADESH","PHONE":"0891-2754026/27","FAX":"0891-2731036","EMAIL ID":"info@palmbeachhotel.in","WEBSITE":"www.palmbeachhotel.in","TYPE":"4 Star"},{"Rooms":"115","HOTEL NAME":"QUALITY INN DV MANOR","ADDRESS":"\"40-1-47, M.G.ROADVENKATESHWARA PURAM, Vijayawada, ANDHRA PRADESH\"","LATITUDE":"16.5003201000000000","LONGITUDE":"80.6481678999999000","STATE":"ANDHRA PRADESH","PHONE":"866474455","FAX":"866483170","EMAIL ID":"info@hoteldvmanor.com","WEBSITE":"NA","TYPE":"4 Star"},{"Rooms":"90","HOTEL NAME":"Best Western Amrutha Castle","ADDRESS":"\"5-9-16, SaifabadOpp. Secretariat, Hyderabad - 500063, ANDHRA PRADESH\"","LATITUDE":"17.4073038000000000","LONGITUDE":"78.4688216999999000","STATE":"ANDHRA PRADESH","PHONE":"040-66633888","FAX":"040-66828222","EMAIL ID":"info@bestwesternamruthacastle.com","WEBSITE":"www.bestwesternamruthacastle.com","TYPE":"4 Star"},{"Rooms":"149","HOTEL NAME":"Hotel Green Park","ADDRESS":"\"(A Division of Diana Hotels Ltd.)7-1-26, Greenlands, Begumpet, Hyderabad - 500016, ANDHRA PRADESH\"","LATITUDE":"17.4364320000000000","LONGITUDE":"78.4536627999999000","STATE":"ANDHRA PRADESH","PHONE":"040-66515151","FAX":"4023757677","EMAIL ID":"hyd@hotelgreenpark.com","WEBSITE":"hotelgreenpark.com","TYPE":"4 Star"},{"Rooms":"71","HOTEL NAME":"Hotel Raj Mahal","ADDRESS":"\"A.T. RoadPaltan Bazar, Guwahati - 781001, ASSAM\"","LATITUDE":"26.1801396000000000","LONGITUDE":"91.7470414000000000","STATE":"ASSAM","PHONE":"0361-2549141","FAX":"0361-2639282","EMAIL ID":"info@hotelrajmahal.in/hotelrajmahal@vsnl.net","WEBSITE":"www.hotelrajmahal.in","TYPE":"4 Star"},{"Rooms":"20","HOTEL NAME":"Hotel Natraj","ADDRESS":"\"H.S. Road, Dibrugarh - 786001, ASSAM\"","LATITUDE":"27.4815937000000000","LONGITUDE":"94.9037395999999000","STATE":"ASSAM","PHONE":"0373-2327275","FAX":"0373-2321375","EMAIL ID":"hotelnatraj09@gmail.com","WEBSITE":"NA","TYPE":"4 Star"},{"Rooms":"419","HOTEL NAME":"Hotel The Royal Plaza","ADDRESS":"\"(A Unit of Hotel Queen Road Pvt. Ltd.)19, Ashoka Road, New Delhi-110001, DELHI\"","LATITUDE":"28.6217572000000000","LONGITUDE":"77.2172367000000000","STATE":"DELHI","PHONE":"1143555555","FAX":"1143555556","EMAIL ID":"reservations@hoteltheroyalplaza.com/info@hoteltheroyalplaza.com","WEBSITE":"www.hoteltheroyalplaza.com","TYPE":"4 Star"},{"Rooms":"58","HOTEL NAME":"Hotel City Park","ADDRESS":"\"3/4, K/P BLOCK PITAMPURA, New Delhi, DELHI\"","LATITUDE":"28.7038218000000000","LONGITUDE":"77.1462107999999000","STATE":"DELHI","PHONE":"1125468230","FAX":"1127310110","EMAIL ID":"hotelcitypark@vsnl.net","WEBSITE":"NA","TYPE":"4 Star"},{"Rooms":"25","HOTEL NAME":"Hotel Diplomat","ADDRESS":"\"9, Sardar Patel MargDiplomatic Enclave, New Delhi, DELHI\"","LATITUDE":"28.6063957000000000","LONGITUDE":"77.1885628999999000","STATE":"DELHI","PHONE":"1123010204","FAX":"1123018605","EMAIL ID":"","WEBSITE":"NA","TYPE":"4 Star"},{"Rooms":"55","HOTEL NAME":"Maidens Hotel","ADDRESS":"\"7Sham Nath Marg, New Delhi - 110054, DELHI\"","LATITUDE":"28.6744480000000000","LONGITUDE":"77.2261930000000000","STATE":"DELHI","PHONE":"011-23975464","FAX":"011-23980771","EMAIL ID":"reservations@oberoigroup.com","WEBSITE":"www.maidenshotel.com","TYPE":"4 Star"},{"Rooms":"79","HOTEL NAME":"The Connaught","ADDRESS":"\"37Shaheed Bhagat Singh Marg, New Delhi - 110001, DELHI\"","LATITUDE":"28.6339742000000000","LONGITUDE":"77.2142901999999000","STATE":"DELHI","PHONE":"011-23364225","FAX":"011-23340757","EMAIL ID":"theconnaughtnewdelhi@yahoo.com","WEBSITE":"www.theconnaughtnewdelhi.com","TYPE":"4 Star"},{"Rooms":"68","HOTEL NAME":"Hotel Vikram","ADDRESS":"\"Ring Road, Lajpat Nagar, New Delhi, DELHI\"","LATITUDE":"28.5641410000000000","LONGITUDE":"77.2348270000000000","STATE":"DELHI","PHONE":"1146515151","FAX":"1146515152","EMAIL ID":"info@hotelvikram.com","WEBSITE":"NA","TYPE":"4 Star"},{"Rooms":"39","HOTEL NAME":"Lazylagoon Sarovar Portico Suites","ADDRESS":"\"(Unit of Aqua Resorts & Spa Pvt. Ltd.)Baga - Arpora, Bardez - 403518, GOA\"","LATITUDE":"15.5710720000000000","LONGITUDE":"73.7596885000000000","STATE":"GOA","PHONE":"0832-2281520","FAX":"0832-2281527","EMAIL ID":"gmgpo@sarovarhotels.com","WEBSITE":"www.sarovarhotels.com","TYPE":"4 Star"},{"Rooms":"135","HOTEL NAME":"Sun Village Resort","ADDRESS":"\"SaquawadiBaga-Arpora Bardez, GOA\"","LATITUDE":"15.5719550000000000","LONGITUDE":"73.7585960000000000","STATE":"GOA","PHONE":"8322279409","FAX":"8322279415","EMAIL ID":"sun-village@desouzahotels.com","WEBSITE":"NA","TYPE":"4 Star"},{"Rooms":"197","HOTEL NAME":"WHISPERING PALMS BEACH RESORT","ADDRESS":"\"SINQUERIM BEACH, WADDICANDOLIM, BARDEZ-GOA, GOA\"","LATITUDE":"15.5103640000000000","LONGITUDE":"73.7679940000000000","STATE":"GOA","PHONE":"4712485766","FAX":"4712481578","EMAIL ID":"info@whisperingpalms.com","WEBSITE":"NA","TYPE":"4 Star"},{"Rooms":"70","HOTEL NAME":"The Metropole Hotel","ADDRESS":"\"(Unit of Majestic Projects Pvt. Ltd.)Near R.T.O. Circle, Subhash Bridge Corner, Ahmedabad - 380027, \"","LATITUDE":"23.0652710000000000","LONGITUDE":"72.5840405999999000","STATE":"GUJARAT","PHONE":"079-30130200","FAX":"079-30130208","EMAIL ID":"info@themetropolehotel.co.in","WEBSITE":"www.themetropolehotel.co.in","TYPE":"4 Star"},{"Rooms":"45","HOTEL NAME":"Hotel Fortune Palace","ADDRESS":"\"Near Digjam CircleAirport Road, Jamnagar - 361 008, GUJARAT\"","LATITUDE":"22.4697910000000000","LONGITUDE":"70.0416989999999000","STATE":"GUJARAT","PHONE":"0288-2720291","FAX":"0288-2720296","EMAIL ID":"hotelfortunepalace@yahoo.com","WEBSITE":"www.hotelfortunepalace.in","TYPE":"4 Star"},{"Rooms":"84","HOTEL NAME":"Fortune Inn Haveli","ADDRESS":"\"Plot No. 235,Sector - 11, Gandhinagar, GUJARAT\"","LATITUDE":"23.2173663000000000","LONGITUDE":"72.6491398999999000","STATE":"GUJARAT","PHONE":"7939884422","FAX":"7939842121","EMAIL ID":"haveli@fortunehotels.in","WEBSITE":"www.fortunehotels.in","TYPE":"4 Star"},{"Rooms":"37","HOTEL NAME":"Hotel The Grand Bhagwati","ADDRESS":"\"Opp. GurudwaraBodakdev, S.G. Highway, Ahmedabad - 380 054, GUJARAT\"","LATITUDE":"23.0424852000000000","LONGITUDE":"72.5143736000000000","STATE":"GUJARAT","PHONE":"7926841000","FAX":"7926840915","EMAIL ID":"info@thegrandbhagwati.com","WEBSITE":"www.thegrandbhagwati.com","TYPE":"4 Star"},{"Rooms":"80","HOTEL NAME":"Optus Sarovar Premiere Hotel","ADDRESS":"\"SCO 43-47Sector - 28, City Centre, Gurgaon - 122002, \"","LATITUDE":"28.4677081000000000","LONGITUDE":"77.0652997000000000","STATE":"HARYANA","PHONE":"0124-4887777","FAX":"0124-4887788","EMAIL ID":"spg@sarovarhotels.com","WEBSITE":"www.sarovarhotels.com","TYPE":"4 Star"},{"Rooms":"94","HOTEL NAME":"Park Premier","ADDRESS":"\"359-357Sector - 29, Gurgaon - 122 001, HARYANA\"","LATITUDE":"28.4625127000000000","LONGITUDE":"77.0678923999999000","STATE":"HARYANA","PHONE":"0124-4604600","FAX":"0124-4604666","EMAIL ID":"info@parkpremierhotels.com","WEBSITE":"www.parkpremierhotels.com","TYPE":"4 Star"},{"Rooms":"49","HOTEL NAME":"The Bella Vista","ADDRESS":"\"SM 8, City Centre,Sector 5, Panchkula, HARYANA\"","LATITUDE":"30.7004328000000000","LONGITUDE":"76.8611854000000000","STATE":"HARYANA","PHONE":"1725064848","FAX":"1725023802","EMAIL ID":"sales@bellavista.in","WEBSITE":"NA","TYPE":"4 Star"},{"Rooms":"83","HOTEL NAME":"Fortune Select Global","ADDRESS":"\"2nd Floor, Global ArcadeM.G. Road, Gurgaon, HARYANA\"","LATITUDE":"28.4812146000000000","LONGITUDE":"77.1032302000000000","STATE":"HARYANA","PHONE":"0124-4196666","FAX":"0124-4062388","EMAIL ID":"global@fortunehotels.in","WEBSITE":"www.fortunehotelsin","TYPE":"4 Star"},{"Rooms":"198","HOTEL NAME":"Courtyard By Marriott","ADDRESS":"\"Plot No. 27 BSector Road, Sushant Lok - 1, Sector - 27, Gurgaon - 122 002, HARYANA\"","LATITUDE":"28.4609250000000000","LONGITUDE":"77.0803690000000000","STATE":"HARYANA","PHONE":"0124-4888444","FAX":"0124-4888222","EMAIL ID":"www.courtyardmarriottgurgaon.com","WEBSITE":"NA","TYPE":"4 Star"},{"Rooms":"130","HOTEL NAME":"Fortune Park J.P.Celestial","ADDRESS":"\"No 5/43, Seshadri RoadNear Race Course Road, Bangalore-09, KARNATAKA\"","LATITUDE":"12.9808730000000000","LONGITUDE":"77.5759880000000000","STATE":"KARNATAKA","PHONE":"8040441234","FAX":"8041476060","EMAIL ID":"jpcelestial@fortunehotels.in","WEBSITE":"www.fortunehotels.in","TYPE":"4 Star"},{"Rooms":"29","HOTEL NAME":"The Gatwway Hotel - Chikmagalur","ADDRESS":"\"KM RoadJyothi Nagar, Chikmagalur - 577102, KARNATAKA\"","LATITUDE":"13.3366102000000000","LONGITUDE":"75.8174420000000000","STATE":"KARNATAKA","PHONE":"08262-660660-61","FAX":"08262-660666","EMAIL ID":"gateway.chikmagalur@tajhotels.com","WEBSITE":"www.thegatewayhotels.com","TYPE":"4 Star"},{"Rooms":"198","HOTEL NAME":"Raj Residency","ADDRESS":"\"Near New bus standAlamipally, Kanhangad, KERALA\"","LATITUDE":"12.3048900000000000","LONGITUDE":"75.0982839999999000","STATE":"KERALA","PHONE":"4672208444","FAX":"4672217294","EMAIL ID":"rajgrouphotels@gmail.com","WEBSITE":"rajgrouphotels.com","TYPE":"4 Star"},{"Rooms":"39","HOTEL NAME":"Hotel Maurya Rajadhani","ADDRESS":"\"Stat GL,Hospital Road Statue, Trivandrum, KERALA\"","LATITUDE":"8.9868500000000000","LONGITUDE":"76.9461910000000000","STATE":"KERALA","PHONE":"4712472299","FAX":"4712472299","EMAIL ID":"maurya@rajadhanihotels.com","WEBSITE":"NA","TYPE":"4 Star"},{"Rooms":"101","HOTEL NAME":"Keys Hotels","ADDRESS":"\"Sy. No. 2863/1Opp. Fire & Rescue Services Housing Board junction, Trivandrum, KERALA\"","LATITUDE":"8.4946690000000000","LONGITUDE":"76.9521429999999000","STATE":"KERALA","PHONE":"4713944100","FAX":"4713983800","EMAIL ID":"reservations.thiruvananthapuram@keyshotels.com","WEBSITE":"keyshotels.com","TYPE":"4 Star"},{"Rooms":"39","HOTEL NAME":"Hotel Blue Nile","ADDRESS":"\"S.N. Park Road, Kannur - 670 001, KERALA\"","LATITUDE":"11.8700696000000000","LONGITUDE":"75.3600278000000000","STATE":"KERALA","PHONE":"0497-2760077, 276478","FAX":"0497-2768844","EMAIL ID":"mail@hotelbluenile.com","WEBSITE":"www.hotelbluenile.com","TYPE":"4 Star"},{"Rooms":"26","HOTEL NAME":"Hotel Amruthaa International","ADDRESS":"\"No. CC 41/2884St. Benedict Road, Ernakulam, Kochi - 682 018, KERALA\"","LATITUDE":"9.9905344000000000","LONGITUDE":"76.2833814999999000","STATE":"KERALA","PHONE":"0484-2398222-4192222","FAX":"0484-4050551","EMAIL ID":"amruthaainternational@gmail.com","WEBSITE":"NA","TYPE":"4 Star"},{"Rooms":"18","HOTEL NAME":"Fragrant Nature Retreat and Resort Pvt. Ltd.","ADDRESS":"\"Building No. CPI/07-20A,Nedungolam P.O., Paravur, Kollam, KERALA\"","LATITUDE":"8.8384623999999900","LONGITUDE":"76.6795353000000000","STATE":"KERALA","PHONE":"4742514000","FAX":"4742518021","EMAIL ID":"enquiries@fragrantnature.com","WEBSITE":"www.fragrantnature.com","TYPE":"4 Star"},{"Rooms":"49","HOTEL NAME":"Hotel Presidency","ADDRESS":"\"Paramara Road Ernakulam Town, Kochi, KERALA\"","LATITUDE":"9.9904698000000000","LONGITUDE":"76.2851182000000000","STATE":"KERALA","PHONE":"4842394300","FAX":"4842393222","EMAIL ID":"presid@vsnl.com","WEBSITE":"NA","TYPE":"4 Star"},{"Rooms":"10","HOTEL NAME":"Hotel Raj Regency","ADDRESS":"\"Chelakkara road,Pazhayannur, Thrissur, KERALA\"","LATITUDE":"10.6862504000000000","LONGITUDE":"76.4180181000000000","STATE":"KERALA","PHONE":"4884226877","FAX":"4884666977","EMAIL ID":"rajregencypnr@gmail.com","WEBSITE":"NA","TYPE":"4 Star"},{"Rooms":"20","HOTEL NAME":"ATS Residency","ADDRESS":"\"Yakkara Branch RoadNear D.P Office, Palakkad, KERALA\"","LATITUDE":"10.7631933000000000","LONGITUDE":"76.6511740999999000","STATE":"KERALA","PHONE":"4912537477","FAX":"4912523182","EMAIL ID":"info@atshotels.com","WEBSITE":"atsresidency.com","TYPE":"4 Star"},{"Rooms":"34","HOTEL NAME":"The Royale Gardens","ADDRESS":"\"Nangiarkulangara P.O.Haripad - Alleppey District, Kerala - 690513, KERALA\"","LATITUDE":"9.2546240999999900","LONGITUDE":"76.4657690000000000","STATE":"KERALA","PHONE":"0479-2404000","FAX":"0479-2404999","EMAIL ID":"info@theroyalegardens.com","WEBSITE":"www.theroyalegardens.com","TYPE":"4 Star"},{"Rooms":"12","HOTEL NAME":"Hotel Srivatsa Regency","ADDRESS":"\"Pittupeedika, Main Road,Koduvayur, Palakkad, KERALA\"","LATITUDE":"10.6809350000000000","LONGITUDE":"76.6497760000000000","STATE":"KERALA","PHONE":"4923251119","FAX":"4923254119","EMAIL ID":"hotelsrivatsaregency@gmail.com","WEBSITE":"www.hotelsrivatsaregency.com","TYPE":"4 Star"},{"Rooms":"15","HOTEL NAME":"Hotel Hills Park","ADDRESS":"\"Kumbazha Road,Pathanamthitta,District, Kerala, KERALA\"","LATITUDE":"9.2667951999999900","LONGITUDE":"76.8036577000000000","STATE":"KERALA","PHONE":"4682226262","FAX":"NA","EMAIL ID":"hotelhillspark@gmail.com","WEBSITE":"NA","TYPE":"4 Star"},{"Rooms":"22","HOTEL NAME":"Neelamabari Suite","ADDRESS":"\"Villanchira,Thalakkodu P.O.Neriyamangalam, Ernakulam, KERALA\"","LATITUDE":"10.0547518000000000","LONGITUDE":"76.7619926000000000","STATE":"KERALA","PHONE":"4852555123","FAX":"4852555133","EMAIL ID":"infor@neelabarisuite.com","WEBSITE":"neelabarisuite.com","TYPE":"4 Star"},{"Rooms":"20","HOTEL NAME":"Excalibur Hotels & Resorts","ADDRESS":"\"Carithas Junction,MC Road,Thellakon, Kottayam, KERALA\"","LATITUDE":"9.6475104999999900","LONGITUDE":"76.5485230000000000","STATE":"KERALA","PHONE":"4812791781","FAX":"4812711784","EMAIL ID":"hotel.excalibur@gmail.com","WEBSITE":"www.excalibur.in","TYPE":"4 Star"},{"Rooms":"198","HOTEL NAME":"Raj Residency","ADDRESS":"\"Near New bus standAlamipally, Kanhangad, KERALA\"","LATITUDE":"12.3048900000000000","LONGITUDE":"75.0982839999999000","STATE":"KERALA","PHONE":"4672208444","FAX":"4672217294","EMAIL ID":"rajgrouphotels@gmail.com","WEBSITE":"rajgrouphotels.com","TYPE":"4 Star"},{"Rooms":"44","HOTEL NAME":"Muthoot Cardamom County Resort","ADDRESS":"\"Kumily (PO)Thekkady, Idukki (Dist.) - 685536, KERALA\"","LATITUDE":"9.6035849999999900","LONGITUDE":"77.1686129999999000","STATE":"KERALA","PHONE":"04869-224501","FAX":"04869-222869/222807","EMAIL ID":"reservations@muthoothotels.com","WEBSITE":"www.raxacollective.com","TYPE":"4 Star"},{"Rooms":"12","HOTEL NAME":"Hotel White Dammar International","ADDRESS":"\"Pappanamcode, Trivandrum - 695 018, KERALA\"","LATITUDE":"8.4680901000000000","LONGITUDE":"76.9838558999999000","STATE":"KERALA","PHONE":"4712496601","FAX":"4712496602","EMAIL ID":"whitedammar@gmail.com","WEBSITE":"hotelwhitedammar@gmail.com","TYPE":"4 Star"},{"Rooms":"69","HOTEL NAME":"c","ADDRESS":"\"Panavila JnThycaud P.O., Thiruvananthapuram - 695014, KERALA\"","LATITUDE":"8.4946957000000000","LONGITUDE":"76.9619522000000000","STATE":"KERALA","PHONE":"0471-2333344","FAX":"0471-2321000","EMAIL ID":"mail@spgranddays.com","WEBSITE":"www.spgranddays.com","TYPE":"4 Star"},{"Rooms":"20","HOTEL NAME":"Hotel Peninsula Park Residency","ADDRESS":"\"Motel and Resorts Pvt. Ltd.Parakode, Adoor, Pathanamthitta Dist., KERALA\"","LATITUDE":"9.1484804000000000","LONGITUDE":"76.7591324000000000","STATE":"KERALA","PHONE":"4734243435","FAX":"4734243345","EMAIL ID":"parkresidency.park@gmail.com","WEBSITE":"NA","TYPE":"4 Star"},{"Rooms":"14","HOTEL NAME":"Hotel Indraprastha","ADDRESS":"\"Pattazhi P.O.Pathanapuram, Kollam Dist.-691522, KERALA\"","LATITUDE":"9.0197201000000000","LONGITUDE":"76.9122314000000000","STATE":"KERALA","PHONE":"04752039600,2397888-","FAX":"4752397889","EMAIL ID":"indraprasthapattazhi@yahoo.com","WEBSITE":"NA","TYPE":"4 Star"},{"Rooms":"24","HOTEL NAME":"Hotel Mangala Towers","ADDRESS":"\"Paliyam RoadNear Bus Stand, Thrissur - 680001, KERALA\"","LATITUDE":"10.5156803000000000","LONGITUDE":"76.2113724000000000","STATE":"KERALA","PHONE":"04872327461/2/3","FAX":"4872325365","EMAIL ID":"mangalatowers@gmail.com","WEBSITE":"www.hotelmangalatowers.com","TYPE":"4 Star"},{"Rooms":"13","HOTEL NAME":"Hotel Soorya Regency","ADDRESS":"\"Calicut By-Pass RoadKavungal, Malappuram - 676505, KERALA\"","LATITUDE":"11.0437822000000000","LONGITUDE":"76.0857849000000000","STATE":"KERALA","PHONE":"0483-2735674-76","FAX":"0483-2735677","EMAIL ID":"sooryaregency@gmail.com","WEBSITE":"www.sooryaregency.com","TYPE":"4 Star"},{"Rooms":"22","HOTEL NAME":"Hotel Moonlit Regency","ADDRESS":"\"4, Lane JunctionVengallor Muvatupuzha Road, Thodupuzha Idukki District-685584, KERALA\"","LATITUDE":"9.9048100000000000","LONGITUDE":"76.7106699000000000","STATE":"KERALA","PHONE":"04862-229936/229937","FAX":"04862-229938","EMAIL ID":"info@moonlitregency.com/hotelmoonlit@ymail.com","WEBSITE":"NA","TYPE":"4 Star"},{"Rooms":"28","HOTEL NAME":"Hotel Sky Pearl","ADDRESS":"\"Chovva, Kannur - 670006, KERALA\"","LATITUDE":"11.8742657000000000","LONGITUDE":"75.4260101000000000","STATE":"KERALA","PHONE":"0479-5265060","FAX":"0479-2786443","EMAIL ID":"hotelskypearl@gmail.com","WEBSITE":"NA","TYPE":"4 Star"},{"Rooms":"12","HOTEL NAME":"The Royal Fort","ADDRESS":"\"Hospital JunctionKundara P.O., Kollam Dist. - 691501, KERALA\"","LATITUDE":"8.8868904000000000","LONGITUDE":"76.5922775000000000","STATE":"KERALA","PHONE":"0474-2520001-02-03","FAX":"0474-2520004","EMAIL ID":"info@theroyalfort.com","WEBSITE":"www.theroyalfort.com","TYPE":"4 Star"},{"Rooms":"12","HOTEL NAME":"Hotel Soorya Galaxy","ADDRESS":"\"(A Unit of Sreebala Divelopers & Hotel Pvt. Ltd.)13/158 A, Calicut Road, Cheruvannur, P.O. Feroke, Calicut - 673731, KERALA\"","LATITUDE":"11.1735497000000000","LONGITUDE":"75.8351974000000000","STATE":"KERALA","PHONE":"0495-2485150/2485240","FAX":"0495-2455330","EMAIL ID":"sooryagalaxy@gmail.com","WEBSITE":"NA","TYPE":"4 Star"},{"Rooms":"25","HOTEL NAME":"Cochin Seaport Hotel","ADDRESS":"\"Thekken MalipuramVypin, Cochin - 682 508, KERALA\"","LATITUDE":"10.4472647000000000","LONGITUDE":"76.4088974000000000","STATE":"KERALA","PHONE":"9846032737","FAX":"0484-2503757","EMAIL ID":"seaporthotels@gmail.com","WEBSITE":"www.cochinseaporthotel.com","TYPE":"4 Star"},{"Rooms":"55","HOTEL NAME":"The Avenue Regent","ADDRESS":"\"39/2026,M.G. Road, Kochi, KERALA\"","LATITUDE":"9.9359903000000000","LONGITUDE":"76.2614517000000000","STATE":"KERALA","PHONE":"4842377977","FAX":"484237529","EMAIL ID":"avenueregent@avenuehotels.in","WEBSITE":"NA","TYPE":"4 Star"},{"Rooms":"52","HOTEL NAME":"Spice Village","ADDRESS":"\"Thekkady - Kumily Road, Thekkady - 685536, KERALA\"","LATITUDE":"10.4472647000000000","LONGITUDE":"76.4088974000000000","STATE":"KERALA","PHONE":"04869-224514","FAX":"04869-222317","EMAIL ID":"spicevillage@cghearth.com","WEBSITE":"www.cghearth.com","TYPE":"4 Star"},{"Rooms":"10","HOTEL NAME":"Hotel Midhila Regency","ADDRESS":"\"Midhila Regncy Cherplassery Hotels Pvt.Ltd.Pattambi road, Cherpulassery Palakkad Dist., kerala, KERALA\"","LATITUDE":"10.8790703000000000","LONGITUDE":"76.3156204000000000","STATE":"KERALA","PHONE":"NA","FAX":"NA","EMAIL ID":"maltidutta50@yahoo.com","WEBSITE":"NA","TYPE":"4 Star"},{"Rooms":"14","HOTEL NAME":"Hotel Soorya Swagat","ADDRESS":"\"Pudussery EastPalakkad, Walayar, KERALA\"","LATITUDE":"10.3916702000000000","LONGITUDE":"76.8666687000000000","STATE":"KERALA","PHONE":"4912863100","FAX":"4912863103","EMAIL ID":"www.sooryaswagath.in","WEBSITE":"NA","TYPE":"4 Star"},{"Rooms":"13","HOTEL NAME":"The Hotel Elegance","ADDRESS":"\"Karuvanchal POThalimapram, Kannur, KERALA\"","LATITUDE":"11.8689003000000000","LONGITUDE":"75.3554993000000000","STATE":"KERALA","PHONE":"4602247400","FAX":"460247400","EMAIL ID":"maltidutta50@yahoo.com","WEBSITE":"NA","TYPE":"4 Star"},{"Rooms":"14","HOTEL NAME":"K R Grand Residency","ADDRESS":"\"Parayil Market RoadKunnamkulam, Thrissur, KERALA\"","LATITUDE":"10.6514397000000000","LONGITUDE":"76.0678635000000000","STATE":"KERALA","PHONE":"4885211563","FAX":"NA","EMAIL ID":"maltidutta50@yahoo.com","WEBSITE":"NA","TYPE":"4 Star"},{"Rooms":"31","HOTEL NAME":"Hotel Dona Castle","ADDRESS":"\"(Unit of Sunny Jacob Builders & Developers Pvt. Ltd.)Kottamukku, Kollam, KERALA\"","LATITUDE":"8.8868904000000000","LONGITUDE":"76.5922775000000000","STATE":"KERALA","PHONE":"4742766669","FAX":"4742760099","EMAIL ID":"donacastle@gmail.com","WEBSITE":"www.hoteldonacastle.com","TYPE":"4 Star"},{"Rooms":"30","HOTEL NAME":"Hotel Fairmont","ADDRESS":"\"S.H. Mount,M.C. Road, Kottayam, KERALA\"","LATITUDE":"9.6019500000000000","LONGITUDE":"76.5320200000000000","STATE":"KERALA","PHONE":"4812569256","FAX":"4812569246","EMAIL ID":"info@hotelfairmont.in","WEBSITE":"www.hotelfairmont.in","TYPE":"4 Star"},{"Rooms":"70","HOTEL NAME":"Hotel Anandha Inn Pvt. Ltd.","ADDRESS":"\"NO-154S.V PATEL ROAD, PONDICHERRY, KERALA\"","LATITUDE":"11.9299297000000000","LONGITUDE":"79.8246994000000000","STATE":"KERALA","PHONE":"4132233000","FAX":"4132331241","EMAIL ID":"checkin@anandhainn.com","WEBSITE":"www.anandhainn.com","TYPE":"4 Star"},{"Rooms":"20","HOTEL NAME":"Niya Regency","ADDRESS":"\"Elthuruth Junction,Chettupuzha P.O., Thrissur, KERALA\"","LATITUDE":"10.5156803000000000","LONGITUDE":"76.2113724000000000","STATE":"KERALA","PHONE":"4872363667","FAX":"4872363667","EMAIL ID":"niyaregency@gmail.com","WEBSITE":"www.niyaregency.com","TYPE":"4 Star"},{"Rooms":"82","HOTEL NAME":"The South Park","ADDRESS":"\"(Unit of Kerala Hotels Pvt. Ltd.)M.G. Road, Trivandrum - 695 034, KERALA\"","LATITUDE":"8.5029600000000000","LONGITUDE":"76.9505900000000000","STATE":"KERALA","PHONE":"0471-2333333, 324233","FAX":"0471-2331861","EMAIL ID":"reservations@thesouthpark.com","WEBSITE":"www.thesouthpark.com","TYPE":"4 Star"},{"Rooms":"50","HOTEL NAME":"Uday Samudra Leisure Beach Hotel","ADDRESS":"\"G.V.Raja Road,Samudra Beach Kovalam, Trivandrum, KERALA\"","LATITUDE":"8.3980799000000000","LONGITUDE":"76.9820633000000000","STATE":"KERALA","PHONE":"1246563228","FAX":"1246563174","EMAIL ID":"toshali@nde.vsnal.net.in","WEBSITE":"www.toshalinet.com","TYPE":"4 Star"},{"Rooms":"46","HOTEL NAME":"SEASONS SERVICE APARTMENTS","ADDRESS":"\"S. NO-128/2/3/6/7/2/2/128/A1,SANEWADI AUNDH, PUNE, Malad, MAHARASHTRA\"","LATITUDE":"38.3788414000000000","LONGITUDE":"-81.7925644000000000","STATE":"MAHARASHTRA","PHONE":"2040009999","FAX":"2040009888","EMAIL ID":"info@seasonsaundh.com","WEBSITE":"NA","TYPE":"4 Star"},{"Rooms":"76","HOTEL NAME":"HOTEL BAWA INTERNATIONAL","ADDRESS":"\"NEHRU ROAD EXTN.NEAR DOMESTIC AIRPORT VILE PARLE (E), Mumbai, MAHARASHTRA\"","LATITUDE":"19.0972100000000000","LONGITUDE":"72.8501700000000000","STATE":"MAHARASHTRA","PHONE":"2226113636","FAX":"2226107096","EMAIL ID":"mail.bawaintl@vsnl.com","WEBSITE":"NA","TYPE":"4 Star"},{"Rooms":"282","HOTEL NAME":"Hotel Courtyard By Marriott","ADDRESS":"\"International Airport,CTS No. 215, Andheri Kurla Road, Andheri (East), Mumbai, MAHARASHTRA\"","LATITUDE":"19.1073999000000000","LONGITUDE":"72.8835500000000000","STATE":"MAHARASHTRA","PHONE":"2261479922","FAX":"2261479944","EMAIL ID":"reservations.mumbai@courtyard.com","WEBSITE":"NA","TYPE":"4 Star"},{"Rooms":"60","HOTEL NAME":"Hotel Midtown Pritam","ADDRESS":"\"DharamputraPritam Estate Dr.Ambedkar Road, Dadar T.T, Mumbai-400014, MAHARASHTRA\"","LATITUDE":"19.0153732000000000","LONGITUDE":"72.8460464000000000","STATE":"MAHARASHTRA","PHONE":"022-24145555/6580663","FAX":"022-24143388","EMAIL ID":"reservations@pritamhotels.com","WEBSITE":"www.pritamhotels.com","TYPE":"4 Star"},{"Rooms":"436","HOTEL NAME":"Hotel Trident","ADDRESS":"\"C-56, G-Block,Bandra Kurla Complex, Mumbai, MAHARASHTRA\"","LATITUDE":"19.0620708000000000","LONGITUDE":"72.8684921000000000","STATE":"MAHARASHTRA","PHONE":"2266727777","FAX":"2266727788","EMAIL ID":"reservations@tridenthotels.com","WEBSITE":"tridenthotels.com","TYPE":"4 Star"},{"Rooms":"54","HOTEL NAME":"Hotel Tunga Regale","ADDRESS":"\"Plot No. 31, Phase IIMIDC, Central Road, Andheri (East), Mumbai - 400093, MAHARASHTRA\"","LATITUDE":"19.1191700000000000","LONGITUDE":"72.8703600000000000","STATE":"MAHARASHTRA","PHONE":"022-66726672","FAX":"022-66726666","EMAIL ID":"regale@tungahotels.com","WEBSITE":"www.tungahotels.com","TYPE":"4 Star"},{"Rooms":"58","HOTEL NAME":"Ramee Guestline Hotel","ADDRESS":"\"Plot No. 3Kohinoor Road, Dadar (East), Mumbai - 400014, MAHARASHTRA\"","LATITUDE":"19.0136509000000000","LONGITUDE":"72.8442001000000000","STATE":"MAHARASHTRA","PHONE":"022-24177900/2411565","FAX":"022-24127503","EMAIL ID":"mumbai.dadar@rameeguestlinehotels.com","WEBSITE":"www.ramee-group.com","TYPE":"4 Star"},{"Rooms":"94","HOTEL NAME":"K. Raheja Corp. Pvt. Ltd. \"The Resort\"","ADDRESS":"\"11,Aksa Beach,Malad (West), Mumbai - 400 095, MAHARASHTRA\"","LATITUDE":"19.1726199000000000","LONGITUDE":"72.7959800000000000","STATE":"MAHARASHTRA","PHONE":"022-28447777","FAX":"022-28804444 - 28818","EMAIL ID":"resv@theresortmumbai.com/the_resort@vsnl.com","WEBSITE":"NA","TYPE":"4 Star"},{"Rooms":"76","HOTEL NAME":"Hotel Sagar Plaza","ADDRESS":"\"1Bund Garden Road, Pune - 411001, MAHARASHTRA\"","LATITUDE":"18.5387999000000000","LONGITUDE":"73.8759000000000000","STATE":"MAHARASHTRA","PHONE":"020-26205000","FAX":"020-26122633","EMAIL ID":"reservations@hotelsagarplaza.com/info@hotelsagarplaza.com","WEBSITE":"www.hotelsagarplaza.com","TYPE":"4 Star"},{"Rooms":"74","HOTEL NAME":"The Central Park Hotel","ADDRESS":"\"Bund Garden RoadNear Council Hall, Pune - 411 001, MAHARASHTRA\"","LATITUDE":"18.5375600000000000","LONGITUDE":"73.8814100000000000","STATE":"MAHARASHTRA","PHONE":"022-66641000","FAX":"022-66641010","EMAIL ID":"reservations@thecentralparkhotel.com","WEBSITE":"www.thecentralparkhotel.com","TYPE":"4 Star"},{"Rooms":"225","HOTEL NAME":"Holiday Inn Mumbai International Airport","ADDRESS":"\"721/1,721/A,721/B of Mohali VillageAndhri Kurla Road, Sakinaka junction, Mumbai, MAHARASHTRA\"","LATITUDE":"19.1014400000000000","LONGITUDE":"72.8809700000000000","STATE":"MAHARASHTRA","PHONE":"2240851800","FAX":"2240851828","EMAIL ID":"maltidutta50@yahoo.com","WEBSITE":"NA","TYPE":"4 Star"},{"Rooms":"56","HOTEL NAME":"The Emerald","ADDRESS":"\"(Hotel & Executive Apartment)Mumbai Next to Juhu Tara Road, Opp. Hotel Sea Princess, B.R. Chopra's Bungalow, Santacruz (West), Mumbai-400049, MAHARASHTRA\"","LATITUDE":"19.0831909000000000","LONGITUDE":"72.8390198000000000","STATE":"MAHARASHTRA","PHONE":"022-67144000","FAX":"022-67144005","EMAIL ID":"info@theemerald.com","WEBSITE":"www.theemerald.com","TYPE":"4 Star"},{"Rooms":"50","HOTEL NAME":"Hotel Polo Tower","ADDRESS":"\"Oakland RoadPolo Grounds, Shillong - 793001, MEGHALAYA\"","LATITUDE":"25.5770100000000000","LONGITUDE":"91.8850500000000000","STATE":"MEGHALAYA","PHONE":"0364-2222341-42","FAX":"0364-2220090","EMAIL ID":"hptfo@rediffmail.com","WEBSITE":"www.hotelpolotowers.com","TYPE":"4 Star"},{"Rooms":"75","HOTEL NAME":"M.K.HOTEL","ADDRESS":"\"DISTRICT SHOPPING CENTRE,RANJIT AVENUE, Amritsar, PUNJAB\"","LATITUDE":"31.6528000000000000","LONGITUDE":"74.8606300000000000","STATE":"PUNJAB","PHONE":"1832504610","FAX":"1832507910","EMAIL ID":"MKHOTEL123@SANCHARNET.IN","WEBSITE":"www.mkhotel.com","TYPE":"4 Star"},{"Rooms":"53","HOTEL NAME":"THE MAYA HOTEL (Maya Inns Ltd.)","ADDRESS":"\"JALANDHAR CITYEH-178,CIVIL LINES,NEAR BMC CROSSIN, JALANDHAR CITY-144001, PUNJAB\"","LATITUDE":"31.3222847000000000","LONGITUDE":"75.5839615000000000","STATE":"PUNJAB","PHONE":"0181 4688700/22","FAX":"1812452301","EMAIL ID":"mayajal@mayahotels.in","WEBSITE":"http://www.mayahotels.in","TYPE":"4 Star"},